country,age_range,self_defined_ethnicity,gender,officer_defined_ethnicity,object_of_search,location
liverpool,,Other ethnic group - Not stated,Male,White,Controlled drugs,"{'latitude': '53.407900', 'street': {'id': 1487832, 'name': 'Liverpool Lime Street (Station)'}, 'longitude': '-2.977600'}"
liverpool,10-17,White - English/Welsh/Scottish/Northern Irish/British,Male,White,Controlled drugs,"{'latitude': '53.407900', 'street': {'id': 1487832, 'name': 'Liverpool Lime Street (Station)'}, 'longitude': '-2.977600'}"
liverpool,18-24,Other ethnic group - Not stated,Male,White,Controlled drugs,"{'latitude': '53.407900', 'street': {'id': 1487832, 'name': 'Liverpool Lime Street (Station)'}, 'longitude': '-2.977600'}"
liverpool,18-24,Other ethnic group - Not stated,Male,White,Evidence of offences under the Act,"{'latitude': '53.407900', 'street': {'id': 1487832, 'name': 'Liverpool Lime Street (Station)'}, 'longitude': '-2.977600'}"
liverpool,18-24,Other ethnic group - Not stated,Male,White,Controlled drugs,"{'latitude': '53.407900', 'street': {'id': 1487832, 'name': 'Liverpool Lime Street (Station)'}, 'longitude': '-2.977600'}"
liverpool,18-24,White - English/Welsh/Scottish/Northern Irish/British,Male,White,Controlled drugs,"{'latitude': '53.407900', 'street': {'id': 1487832, 'name': 'Liverpool Lime Street (Station)'}, 'longitude': '-2.977600'}"
liverpool,25-34,White - English/Welsh/Scottish/Northern Irish/British,Male,White,Controlled drugs,"{'latitude': '53.407900', 'street': {'id': 1487832, 'name': 'Liverpool Lime Street (Station)'}, 'longitude': '-2.977600'}"
liverpool,25-34,White - English/Welsh/Scottish/Northern Irish/British,Male,White,Stolen goods,"{'latitude': '53.407900', 'street': {'id': 1487832, 'name': 'Liverpool Lime Street (Station)'}, 'longitude': '-2.977600'}"
liverpool,over 34,White - English/Welsh/Scottish/Northern Irish/British,Male,White,Controlled drugs,"{'latitude': '53.407900', 'street': {'id': 1487832, 'name': 'Liverpool Lime Street (Station)'}, 'longitude': '-2.977600'}"
liverpool,18-24,White - English/Welsh/Scottish/Northern Irish/British,Male,White,Anything to threaten or harm anyone,"{'latitude': '53.404400', 'street': {'id': 1487834, 'name': 'Liverpool Central (Station)'}, 'longitude': '-2.979630'}"
liverpool,over 34,Black/African/Caribbean/Black British - Caribbean,Male,Black,Controlled drugs,"{'latitude': '53.407900', 'street': {'id': 1487832, 'name': 'Liverpool Lime Street (Station)'}, 'longitude': '-2.977600'}"
liverpool,over 34,White - English/Welsh/Scottish/Northern Irish/British,Male,White,Article for use in theft,"{'latitude': '53.407900', 'street': {'id': 1487832, 'name': 'Liverpool Lime Street (Station)'}, 'longitude': '-2.977600'}"
liverpool,25-34,White - English/Welsh/Scottish/Northern Irish/British,Male,White,Controlled drugs,"{'latitude': '53.407900', 'street': {'id': 1487832, 'name': 'Liverpool Lime Street (Station)'}, 'longitude': '-2.977600'}"
liverpool,10-17,White - English/Welsh/Scottish/Northern Irish/British,Male,White,Controlled drugs,"{'latitude': '53.407900', 'street': {'id': 1487832, 'name': 'Liverpool Lime Street (Station)'}, 'longitude': '-2.977600'}"
liverpool,18-24,White - English/Welsh/Scottish/Northern Irish/British,Male,White,Controlled drugs,"{'latitude': '53.407900', 'street': {'id': 1487832, 'name': 'Liverpool Lime Street (Station)'}, 'longitude': '-2.977600'}"
liverpool,25-34,White - English/Welsh/Scottish/Northern Irish/British,Male,,Controlled drugs,"{'latitude': '53.407900', 'street': {'id': 1487832, 'name': 'Liverpool Lime Street (Station)'}, 'longitude': '-2.977600'}"
liverpool,25-34,White - English/Welsh/Scottish/Northern Irish/British,Male,White,,"{'latitude': '53.399370', 'street': {'id': 910451, 'name': 'On or near Falkner Street'}, 'longitude': '-2.964414'}"
liverpool,18-24,White - English/Welsh/Scottish/Northern Irish/British,Male,White,,"{'latitude': '53.404218', 'street': {'id': 910567, 'name': 'On or near Bus/Coach Station'}, 'longitude': '-2.987117'}"
liverpool,10-17,White - English/Welsh/Scottish/Northern Irish/British,Male,White,,"{'latitude': '53.404218', 'street': {'id': 910567, 'name': 'On or near Bus/Coach Station'}, 'longitude': '-2.987117'}"
liverpool,25-34,White - English/Welsh/Scottish/Northern Irish/British,Male,White,,"{'latitude': '53.405247', 'street': {'id': 910547, 'name': 'On or near Lord Street'}, 'longitude': '-2.988735'}"
liverpool,18-24,White - English/Welsh/Scottish/Northern Irish/British,Male,White,,"{'latitude': '53.410644', 'street': {'id': 911856, 'name': 'On or near Cockspur Street West'}, 'longitude': '-2.990515'}"
liverpool,18-24,White - English/Welsh/Scottish/Northern Irish/British,Male,White,,"{'latitude': '53.410644', 'street': {'id': 911856, 'name': 'On or near Cockspur Street West'}, 'longitude': '-2.990515'}"
liverpool,18-24,Other ethnic group - Not stated,Male,,,"{'latitude': '53.403224', 'street': {'id': 910305, 'name': 'On or near Parking Area'}, 'longitude': '-2.983348'}"
liverpool,18-24,Other ethnic group - Not stated,Male,,,"{'latitude': '53.403224', 'street': {'id': 910305, 'name': 'On or near Parking Area'}, 'longitude': '-2.983348'}"
liverpool,18-24,White - Irish,Female,White,,"{'latitude': '53.410644', 'street': {'id': 911856, 'name': 'On or near Cockspur Street West'}, 'longitude': '-2.990515'}"
liverpool,18-24,White - English/Welsh/Scottish/Northern Irish/British,Male,White,,"{'latitude': '53.410644', 'street': {'id': 911856, 'name': 'On or near Cockspur Street West'}, 'longitude': '-2.990515'}"
liverpool,25-34,Black/African/Caribbean/Black British - Caribbean,Male,Black,,"{'latitude': '53.406417', 'street': {'id': 911902, 'name': 'On or near Tower Gardens'}, 'longitude': '-2.993997'}"
liverpool,18-24,White - English/Welsh/Scottish/Northern Irish/British,Male,White,,"{'latitude': '53.402610', 'street': {'id': 910521, 'name': 'On or near Parking Area'}, 'longitude': '-2.995638'}"
liverpool,25-34,White - Irish,Male,White,,"{'latitude': '53.391191', 'street': {'id': 908672, 'name': 'On or near Chesney Close'}, 'longitude': '-2.972048'}"
liverpool,over 34,White - English/Welsh/Scottish/Northern Irish/British,Male,White,,"{'latitude': '53.392828', 'street': {'id': 910516, 'name': 'On or near Upper Harrington Street'}, 'longitude': '-2.975259'}"
liverpool,10-17,White - English/Welsh/Scottish/Northern Irish/British,Female,White,,"{'latitude': '53.404155', 'street': {'id': 910558, 'name': 'On or near Georges Pierhead'}, 'longitude': '-2.995809'}"
liverpool,18-24,White - English/Welsh/Scottish/Northern Irish/British,Female,White,,"{'latitude': '53.405247', 'street': {'id': 910547, 'name': 'On or near Lord Street'}, 'longitude': '-2.988735'}"
liverpool,18-24,White - English/Welsh/Scottish/Northern Irish/British,Male,White,,"{'latitude': '53.403914', 'street': {'id': 910313, 'name': 'On or near Roe Alley'}, 'longitude': '-2.981499'}"
liverpool,18-24,Other ethnic group - Not stated,Male,,,"{'latitude': '53.403914', 'street': {'id': 910313, 'name': 'On or near Roe Alley'}, 'longitude': '-2.981499'}"
liverpool,18-24,White - English/Welsh/Scottish/Northern Irish/British,Male,White,,"{'latitude': '53.403914', 'street': {'id': 910313, 'name': 'On or near Roe Alley'}, 'longitude': '-2.981499'}"
liverpool,25-34,White - English/Welsh/Scottish/Northern Irish/British,Male,White,,"{'latitude': '53.407816', 'street': {'id': 911929, 'name': 'On or near Russell Street'}, 'longitude': '-2.973721'}"
liverpool,25-34,Asian/Asian British - Bangladeshi,Male,Asian,,"{'latitude': '53.406417', 'street': {'id': 911902, 'name': 'On or near Tower Gardens'}, 'longitude': '-2.993997'}"
liverpool,over 34,White - English/Welsh/Scottish/Northern Irish/British,Female,White,,"{'latitude': '53.409278', 'street': {'id': 912029, 'name': 'On or near London Road'}, 'longitude': '-2.976267'}"
liverpool,over 34,White - English/Welsh/Scottish/Northern Irish/British,Female,White,,"{'latitude': '53.410262', 'street': {'id': 912018, 'name': 'On or near Parking Area'}, 'longitude': '-2.976906'}"
liverpool,18-24,Asian/Asian British - Any other Asian background,Male,Asian,,"{'latitude': '53.403914', 'street': {'id': 910313, 'name': 'On or near Roe Alley'}, 'longitude': '-2.981499'}"
liverpool,18-24,White - English/Welsh/Scottish/Northern Irish/British,Male,White,,"{'latitude': '53.403914', 'street': {'id': 910313, 'name': 'On or near Roe Alley'}, 'longitude': '-2.981499'}"
liverpool,18-24,,Male,Other,,"{'latitude': '53.403736', 'street': {'id': 910358, 'name': 'On or near Renshaw Street'}, 'longitude': '-2.976937'}"
liverpool,10-17,White - English/Welsh/Scottish/Northern Irish/British,Male,White,,"{'latitude': '53.405326', 'street': {'id': 910518, 'name': 'On or near Canada Boulevard'}, 'longitude': '-2.996619'}"
liverpool,18-24,White - English/Welsh/Scottish/Northern Irish/British,Male,White,,"{'latitude': '53.405326', 'street': {'id': 910518, 'name': 'On or near Canada Boulevard'}, 'longitude': '-2.996619'}"
liverpool,25-34,Other ethnic group - Not stated,Male,Black,,"{'latitude': '53.405982', 'street': {'id': 912079, 'name': 'On or near Back Lime Street'}, 'longitude': '-2.979260'}"
liverpool,25-34,Other ethnic group - Not stated,Male,Asian,,"{'latitude': '53.405982', 'street': {'id': 912079, 'name': 'On or near Back Lime Street'}, 'longitude': '-2.979260'}"
liverpool,25-34,Other ethnic group - Not stated,Male,Asian,,"{'latitude': '53.406242', 'street': {'id': 912078, 'name': 'On or near Hilbre Street'}, 'longitude': '-2.977115'}"
liverpool,18-24,Other ethnic group - Not stated,Male,Asian,,"{'latitude': '53.399383', 'street': {'id': 910315, 'name': 'On or near Pitt Street'}, 'longitude': '-2.981515'}"
liverpool,18-24,White - English/Welsh/Scottish/Northern Irish/British,Male,White,,"{'latitude': '53.393773', 'street': {'id': 910328, 'name': 'On or near Dwerryhouse Street'}, 'longitude': '-2.981626'}"
liverpool,18-24,White - English/Welsh/Scottish/Northern Irish/British,Male,White,,"{'latitude': '53.393773', 'street': {'id': 910328, 'name': 'On or near Dwerryhouse Street'}, 'longitude': '-2.981626'}"
liverpool,18-24,White - English/Welsh/Scottish/Northern Irish/British,Male,White,,"{'latitude': '53.393773', 'street': {'id': 910328, 'name': 'On or near Dwerryhouse Street'}, 'longitude': '-2.981626'}"
liverpool,25-34,White - English/Welsh/Scottish/Northern Irish/British,Male,White,,"{'latitude': '53.412490', 'street': {'id': 912076, 'name': 'On or near Further/Higher Educational Building'}, 'longitude': '-2.981365'}"
liverpool,25-34,White - English/Welsh/Scottish/Northern Irish/British,Male,White,,"{'latitude': '53.398866', 'street': {'id': 910482, 'name': 'On or near Back Catharine Street'}, 'longitude': '-2.967847'}"
liverpool,over 34,Asian/Asian British - Any other Asian background,Male,Asian,,"{'latitude': '53.391586', 'street': {'id': 908674, 'name': 'On or near Acorn Court'}, 'longitude': '-2.969922'}"
liverpool,18-24,White - English/Welsh/Scottish/Northern Irish/British,Male,White,,"{'latitude': '53.402353', 'street': {'id': 910560, 'name': 'On or near Duke Street Lane'}, 'longitude': '-2.985464'}"
liverpool,over 34,White - English/Welsh/Scottish/Northern Irish/British,Female,White,,"{'latitude': '53.405247', 'street': {'id': 910547, 'name': 'On or near Lord Street'}, 'longitude': '-2.988735'}"
liverpool,18-24,White - English/Welsh/Scottish/Northern Irish/British,Male,White,,"{'latitude': '53.406227', 'street': {'id': 912087, 'name': 'On or near Brownlow Hill'}, 'longitude': '-2.962418'}"
liverpool,18-24,White - English/Welsh/Scottish/Northern Irish/British,Male,White,,"{'latitude': '53.406227', 'street': {'id': 912087, 'name': 'On or near Brownlow Hill'}, 'longitude': '-2.962418'}"
liverpool,18-24,White - English/Welsh/Scottish/Northern Irish/British,Male,White,,"{'latitude': '53.404365', 'street': {'id': 910355, 'name': 'On or near Upper Newington'}, 'longitude': '-2.976861'}"
liverpool,18-24,White - English/Welsh/Scottish/Northern Irish/British,Male,White,,"{'latitude': '53.404365', 'street': {'id': 910355, 'name': 'On or near Upper Newington'}, 'longitude': '-2.976861'}"
liverpool,over 34,White - English/Welsh/Scottish/Northern Irish/British,Male,,,"{'latitude': '53.396263', 'street': {'id': 910404, 'name': 'On or near Upper Parliament Street'}, 'longitude': '-2.966284'}"
liverpool,18-24,White - English/Welsh/Scottish/Northern Irish/British,Male,White,,"{'latitude': '53.403765', 'street': {'id': 910519, 'name': 'On or near Parking Area'}, 'longitude': '-2.990791'}"
liverpool,over 34,White - English/Welsh/Scottish/Northern Irish/British,Male,White,,"{'latitude': '53.409919', 'street': {'id': 911963, 'name': 'On or near Ilford Street'}, 'longitude': '-2.971498'}"
liverpool,25-34,White - English/Welsh/Scottish/Northern Irish/British,Male,White,,"{'latitude': '53.409919', 'street': {'id': 911963, 'name': 'On or near Ilford Street'}, 'longitude': '-2.971498'}"
liverpool,25-34,White - English/Welsh/Scottish/Northern Irish/British,Female,White,,"{'latitude': '53.404689', 'street': {'id': 910366, 'name': 'On or near Lawton Street'}, 'longitude': '-2.979050'}"
liverpool,18-24,Other ethnic group - Not stated,Female,,,"{'latitude': '53.404689', 'street': {'id': 910366, 'name': 'On or near Lawton Street'}, 'longitude': '-2.979050'}"
liverpool,18-24,White - English/Welsh/Scottish/Northern Irish/British,Female,White,,"{'latitude': '53.404689', 'street': {'id': 910366, 'name': 'On or near Lawton Street'}, 'longitude': '-2.979050'}"
liverpool,over 34,White - English/Welsh/Scottish/Northern Irish/British,Female,White,,"{'latitude': '53.404689', 'street': {'id': 910366, 'name': 'On or near Lawton Street'}, 'longitude': '-2.979050'}"
liverpool,18-24,White - English/Welsh/Scottish/Northern Irish/British,Female,White,,"{'latitude': '53.404689', 'street': {'id': 910366, 'name': 'On or near Lawton Street'}, 'longitude': '-2.979050'}"
liverpool,18-24,White - English/Welsh/Scottish/Northern Irish/British,Male,White,,"{'latitude': '53.392086', 'street': {'id': 908652, 'name': 'On or near Trefoil Close'}, 'longitude': '-2.964791'}"
liverpool,18-24,White - English/Welsh/Scottish/Northern Irish/British,Male,White,,"{'latitude': '53.386745', 'street': {'id': 908681, 'name': 'On or near Tillotson Close'}, 'longitude': '-2.977119'}"
liverpool,10-17,Other ethnic group - Not stated,,White,,"{'latitude': '53.398115', 'street': {'id': 910309, 'name': 'On or near Upper Frederick Street'}, 'longitude': '-2.980463'}"
liverpool,10-17,Mixed/Multiple ethnic groups - White and Black Caribbean,Male,Black,,"{'latitude': '53.410731', 'street': {'id': 912050, 'name': 'On or near Parking Area'}, 'longitude': '-2.983190'}"
liverpool,10-17,White - English/Welsh/Scottish/Northern Irish/British,Male,White,,"{'latitude': '53.403950', 'street': {'id': 910538, 'name': 'On or near Strand Street'}, 'longitude': '-2.992360'}"
liverpool,over 34,White - English/Welsh/Scottish/Northern Irish/British,Male,White,,"{'latitude': '53.394626', 'street': {'id': 910427, 'name': 'On or near Northbrook Street'}, 'longitude': '-2.962998'}"
liverpool,over 34,Mixed/Multiple ethnic groups - White and Asian,Male,Asian,,"{'latitude': '53.389856', 'street': {'id': 908656, 'name': 'On or near Park Road'}, 'longitude': '-2.970424'}"
liverpool,over 34,White - English/Welsh/Scottish/Northern Irish/British,Male,White,,"{'latitude': '53.391420', 'street': {'id': 908661, 'name': 'On or near Luke Street'}, 'longitude': '-2.968144'}"
liverpool,over 34,Black/African/Caribbean/Black British - Caribbean,Male,Black,,"{'latitude': '53.409517', 'street': {'id': 911879, 'name': 'On or near Police Station'}, 'longitude': '-2.990880'}"
liverpool,over 34,White - English/Welsh/Scottish/Northern Irish/British,Male,White,,"{'latitude': '53.405771', 'street': {'id': 910343, 'name': 'On or near Shopping Area'}, 'longitude': '-2.981888'}"
liverpool,over 34,White - English/Welsh/Scottish/Northern Irish/British,Male,White,,"{'latitude': '53.405771', 'street': {'id': 910343, 'name': 'On or near Shopping Area'}, 'longitude': '-2.981888'}"
liverpool,over 34,White - English/Welsh/Scottish/Northern Irish/British,Male,White,,"{'latitude': '53.407939', 'street': {'id': 912044, 'name': 'On or near Shopping Area'}, 'longitude': '-2.977364'}"
liverpool,10-17,White - English/Welsh/Scottish/Northern Irish/British,Male,White,,"{'latitude': '53.402057', 'street': {'id': 910537, 'name': 'On or near Strand Street'}, 'longitude': '-2.989774'}"
liverpool,18-24,White - English/Welsh/Scottish/Northern Irish/British,Female,White,,"{'latitude': '53.404218', 'street': {'id': 910567, 'name': 'On or near Bus/Coach Station'}, 'longitude': '-2.987117'}"
liverpool,10-17,Other ethnic group - Any other ethnic group,Male,Other,,"{'latitude': '53.405982', 'street': {'id': 912079, 'name': 'On or near Back Lime Street'}, 'longitude': '-2.979260'}"
liverpool,25-34,White - English/Welsh/Scottish/Northern Irish/British,Male,White,,"{'latitude': '53.405982', 'street': {'id': 912079, 'name': 'On or near Back Lime Street'}, 'longitude': '-2.979260'}"
liverpool,25-34,White - English/Welsh/Scottish/Northern Irish/British,Male,White,,"{'latitude': '53.407939', 'street': {'id': 912044, 'name': 'On or near Shopping Area'}, 'longitude': '-2.977364'}"
liverpool,over 34,White - English/Welsh/Scottish/Northern Irish/British,Female,White,,"{'latitude': '53.405982', 'street': {'id': 912079, 'name': 'On or near Back Lime Street'}, 'longitude': '-2.979260'}"
liverpool,18-24,White - English/Welsh/Scottish/Northern Irish/British,Female,White,,"{'latitude': '53.404218', 'street': {'id': 910567, 'name': 'On or near Bus/Coach Station'}, 'longitude': '-2.987117'}"
liverpool,over 34,Other ethnic group - Not stated,Male,,,"{'latitude': '53.405982', 'street': {'id': 912079, 'name': 'On or near Back Lime Street'}, 'longitude': '-2.979260'}"
liverpool,18-24,White - English/Welsh/Scottish/Northern Irish/British,Male,White,,"{'latitude': '53.407939', 'street': {'id': 912044, 'name': 'On or near Shopping Area'}, 'longitude': '-2.977364'}"
liverpool,10-17,Mixed/Multiple ethnic groups - Any other Mixed/Multiple ethnic background,Male,Other,,"{'latitude': '53.407521', 'street': {'id': 912057, 'name': ""On or near St George'S Place""}, 'longitude': '-2.980033'}"
liverpool,10-17,White - English/Welsh/Scottish/Northern Irish/British,Female,White,,"{'latitude': '53.402057', 'street': {'id': 910537, 'name': 'On or near Strand Street'}, 'longitude': '-2.989774'}"
liverpool,over 34,White - English/Welsh/Scottish/Northern Irish/British,Male,White,,"{'latitude': '53.409277', 'street': {'id': 912030, 'name': 'On or near Lime Street'}, 'longitude': '-2.978599'}"
liverpool,over 34,White - Any other White background,Male,White,,"{'latitude': '53.409037', 'street': {'id': 912054, 'name': 'On or near Victoria Street'}, 'longitude': '-2.982670'}"
liverpool,18-24,Other ethnic group - Not stated,Male,,,"{'latitude': '53.407939', 'street': {'id': 912044, 'name': 'On or near Shopping Area'}, 'longitude': '-2.977364'}"
liverpool,over 34,Other ethnic group - Not stated,Male,White,,"{'latitude': '53.407939', 'street': {'id': 912044, 'name': 'On or near Shopping Area'}, 'longitude': '-2.977364'}"
liverpool,10-17,Other ethnic group - Not stated,Male,Black,,"{'latitude': '53.407521', 'street': {'id': 912057, 'name': ""On or near St George'S Place""}, 'longitude': '-2.980033'}"
liverpool,25-34,White - English/Welsh/Scottish/Northern Irish/British,Male,White,,"{'latitude': '53.407939', 'street': {'id': 912044, 'name': 'On or near Shopping Area'}, 'longitude': '-2.977364'}"
liverpool,over 34,White - English/Welsh/Scottish/Northern Irish/British,Male,White,,"{'latitude': '53.405982', 'street': {'id': 912079, 'name': 'On or near Back Lime Street'}, 'longitude': '-2.979260'}"
liverpool,18-24,White - English/Welsh/Scottish/Northern Irish/British,Female,White,,"{'latitude': '53.407939', 'street': {'id': 912044, 'name': 'On or near Shopping Area'}, 'longitude': '-2.977364'}"
liverpool,over 34,White - English/Welsh/Scottish/Northern Irish/British,Male,White,,"{'latitude': '53.407939', 'street': {'id': 912044, 'name': 'On or near Shopping Area'}, 'longitude': '-2.977364'}"
liverpool,25-34,White - Any other White background,Male,White,,"{'latitude': '53.407376', 'street': {'id': 912074, 'name': 'On or near Theatre/Concert Hall'}, 'longitude': '-2.981323'}"
liverpool,18-24,White - English/Welsh/Scottish/Northern Irish/British,Male,,,"{'latitude': '53.407489', 'street': {'id': 912063, 'name': 'On or near Lime Street'}, 'longitude': '-2.979611'}"
liverpool,10-17,White - English/Welsh/Scottish/Northern Irish/British,Male,White,,"{'latitude': '53.407939', 'street': {'id': 912044, 'name': 'On or near Shopping Area'}, 'longitude': '-2.977364'}"
liverpool,over 34,White - English/Welsh/Scottish/Northern Irish/British,Male,White,,"{'latitude': '53.405982', 'street': {'id': 912079, 'name': 'On or near Back Lime Street'}, 'longitude': '-2.979260'}"
liverpool,18-24,White - English/Welsh/Scottish/Northern Irish/British,Female,White,,"{'latitude': '53.407213', 'street': {'id': 912015, 'name': 'On or near Pedestrian Subway'}, 'longitude': '-2.979333'}"
liverpool,over 34,White - Irish,Male,White,,"{'latitude': '53.409458', 'street': {'id': 912049, 'name': 'On or near Parking Area'}, 'longitude': '-2.983958'}"
liverpool,25-34,White - English/Welsh/Scottish/Northern Irish/British,Female,White,,"{'latitude': '53.409786', 'street': {'id': 911912, 'name': 'On or near Parking Area'}, 'longitude': '-2.974579'}"
liverpool,10-17,White - English/Welsh/Scottish/Northern Irish/British,Female,White,,"{'latitude': '53.407939', 'street': {'id': 912044, 'name': 'On or near Shopping Area'}, 'longitude': '-2.977364'}"
liverpool,over 34,White - English/Welsh/Scottish/Northern Irish/British,Male,White,,"{'latitude': '53.405771', 'street': {'id': 910343, 'name': 'On or near Shopping Area'}, 'longitude': '-2.981888'}"
liverpool,over 34,White - English/Welsh/Scottish/Northern Irish/British,Male,White,,"{'latitude': '53.390927', 'street': {'id': 908665, 'name': 'On or near Geraint Street'}, 'longitude': '-2.964659'}"
liverpool,over 34,Other ethnic group - Not stated,Male,White,,"{'latitude': '53.409786', 'street': {'id': 911912, 'name': 'On or near Parking Area'}, 'longitude': '-2.974579'}"
liverpool,over 34,Mixed/Multiple ethnic groups - Any other Mixed/Multiple ethnic background,Male,Other,,"{'latitude': '53.391191', 'street': {'id': 908672, 'name': 'On or near Chesney Close'}, 'longitude': '-2.972048'}"
liverpool,over 34,White - English/Welsh/Scottish/Northern Irish/British,Male,White,,"{'latitude': '53.394086', 'street': {'id': 910392, 'name': 'On or near Ashwell Street'}, 'longitude': '-2.976415'}"
liverpool,25-34,White - Any other White background,Male,White,,"{'latitude': '53.401046', 'street': {'id': 910385, 'name': 'On or near Berry Street'}, 'longitude': '-2.976003'}"
liverpool,over 34,White - English/Welsh/Scottish/Northern Irish/British,Male,White,,"{'latitude': '53.404365', 'street': {'id': 910355, 'name': 'On or near Upper Newington'}, 'longitude': '-2.976861'}"
liverpool,over 34,White - English/Welsh/Scottish/Northern Irish/British,Male,White,,"{'latitude': '53.409256', 'street': {'id': 911941, 'name': 'On or near Norton Street'}, 'longitude': '-2.974566'}"
liverpool,18-24,White - Any other White background,Male,White,,"{'latitude': '53.411385', 'street': {'id': 912068, 'name': 'On or near Fontenoy Street'}, 'longitude': '-2.983567'}"
liverpool,over 34,White - English/Welsh/Scottish/Northern Irish/British,Male,White,,"{'latitude': '53.409277', 'street': {'id': 912030, 'name': 'On or near Lime Street'}, 'longitude': '-2.978599'}"
liverpool,25-34,White - English/Welsh/Scottish/Northern Irish/British,Male,White,,"{'latitude': '53.403472', 'street': {'id': 910338, 'name': 'On or near Nightclub'}, 'longitude': '-2.980571'}"
liverpool,18-24,,Male,Other,,"{'latitude': '53.402353', 'street': {'id': 910560, 'name': 'On or near Duke Street Lane'}, 'longitude': '-2.985464'}"
liverpool,18-24,White - English/Welsh/Scottish/Northern Irish/British,Female,White,,"{'latitude': '53.395080', 'street': {'id': 910335, 'name': 'On or near Theatre/Concert Hall'}, 'longitude': '-2.981175'}"
liverpool,18-24,,Male,Other,,"{'latitude': '53.405648', 'street': {'id': 910569, 'name': 'On or near Shopping Area'}, 'longitude': '-2.987014'}"
liverpool,18-24,White - English/Welsh/Scottish/Northern Irish/British,Female,White,,"{'latitude': '53.395080', 'street': {'id': 910335, 'name': 'On or near Theatre/Concert Hall'}, 'longitude': '-2.981175'}"
liverpool,10-17,White - English/Welsh/Scottish/Northern Irish/British,Female,White,,"{'latitude': '53.405686', 'street': {'id': 910344, 'name': 'On or near Shopping Area'}, 'longitude': '-2.983495'}"
liverpool,25-34,White - Any other White background,Male,Asian,,"{'latitude': '53.409479', 'street': {'id': 912011, 'name': 'On or near Supermarket'}, 'longitude': '-2.970434'}"
liverpool,over 34,Other ethnic group - Not stated,Male,Asian,,"{'latitude': '53.400876', 'street': {'id': 910549, 'name': 'On or near Lakeland Close'}, 'longitude': '-2.984753'}"
liverpool,over 34,Other ethnic group - Not stated,Male,White,,"{'latitude': '53.400170', 'street': {'id': 910389, 'name': 'On or near Back Knight Street'}, 'longitude': '-2.975487'}"
liverpool,over 34,White - English/Welsh/Scottish/Northern Irish/British,Male,White,,"{'latitude': '53.400170', 'street': {'id': 910389, 'name': 'On or near Back Knight Street'}, 'longitude': '-2.975487'}"
liverpool,10-17,White - English/Welsh/Scottish/Northern Irish/British,Male,White,,"{'latitude': '53.391191', 'street': {'id': 908672, 'name': 'On or near Chesney Close'}, 'longitude': '-2.972048'}"
liverpool,25-34,White - English/Welsh/Scottish/Northern Irish/British,Male,White,,"{'latitude': '53.394620', 'street': {'id': 910486, 'name': 'On or near Alexandra Terrace'}, 'longitude': '-2.964908'}"
liverpool,25-34,White - English/Welsh/Scottish/Northern Irish/British,Male,White,,"{'latitude': '53.399960', 'street': {'id': 910490, 'name': 'On or near Conference/Exhibition Centre'}, 'longitude': '-2.970308'}"
liverpool,18-24,Other ethnic group - Not stated,Male,,,"{'latitude': '53.407376', 'street': {'id': 912074, 'name': 'On or near Theatre/Concert Hall'}, 'longitude': '-2.981323'}"
liverpool,18-24,Asian/Asian British - Any other Asian background,Male,Asian,,"{'latitude': '53.407376', 'street': {'id': 912074, 'name': 'On or near Theatre/Concert Hall'}, 'longitude': '-2.981323'}"
liverpool,18-24,White - English/Welsh/Scottish/Northern Irish/British,Male,White,,"{'latitude': '53.390596', 'street': {'id': 908555, 'name': 'On or near Parking Area'}, 'longitude': '-2.986531'}"
liverpool,18-24,White - English/Welsh/Scottish/Northern Irish/British,Male,White,,"{'latitude': '53.405533', 'street': {'id': 910532, 'name': 'On or near Water Street'}, 'longitude': '-2.995480'}"
liverpool,18-24,White - English/Welsh/Scottish/Northern Irish/British,Male,White,,"{'latitude': '53.407939', 'street': {'id': 912044, 'name': 'On or near Shopping Area'}, 'longitude': '-2.977364'}"
liverpool,18-24,White - English/Welsh/Scottish/Northern Irish/British,Male,White,,"{'latitude': '53.407939', 'street': {'id': 912044, 'name': 'On or near Shopping Area'}, 'longitude': '-2.977364'}"
liverpool,18-24,White - English/Welsh/Scottish/Northern Irish/British,Male,White,,"{'latitude': '53.409458', 'street': {'id': 912049, 'name': 'On or near Parking Area'}, 'longitude': '-2.983958'}"
liverpool,18-24,White - English/Welsh/Scottish/Northern Irish/British,Male,White,,"{'latitude': '53.409037', 'street': {'id': 912054, 'name': 'On or near Victoria Street'}, 'longitude': '-2.982670'}"
liverpool,18-24,White - English/Welsh/Scottish/Northern Irish/British,Male,White,,"{'latitude': '53.403024', 'street': {'id': 910339, 'name': 'On or near Nightclub'}, 'longitude': '-2.979358'}"
liverpool,over 34,White - English/Welsh/Scottish/Northern Irish/British,Female,White,,"{'latitude': '53.409458', 'street': {'id': 912049, 'name': 'On or near Parking Area'}, 'longitude': '-2.983958'}"
liverpool,25-34,White - English/Welsh/Scottish/Northern Irish/British,Male,White,,"{'latitude': '53.409458', 'street': {'id': 912049, 'name': 'On or near Parking Area'}, 'longitude': '-2.983958'}"
liverpool,18-24,White - English/Welsh/Scottish/Northern Irish/British,Male,White,,"{'latitude': '53.406967', 'street': {'id': 912052, 'name': 'On or near Parking Area'}, 'longitude': '-2.981930'}"
liverpool,25-34,Black/African/Caribbean/Black British - Any other Black/African/Caribbean background,Male,Black,,"{'latitude': '53.397329', 'street': {'id': 910435, 'name': 'On or near Lowther Street'}, 'longitude': '-2.962247'}"
liverpool,25-34,White - English/Welsh/Scottish/Northern Irish/British,Male,White,,"{'latitude': '53.398115', 'street': {'id': 910309, 'name': 'On or near Upper Frederick Street'}, 'longitude': '-2.980463'}"
liverpool,25-34,White - English/Welsh/Scottish/Northern Irish/British,Male,White,,"{'latitude': '53.394224', 'street': {'id': 910317, 'name': 'On or near Parliament Street'}, 'longitude': '-2.979306'}"
liverpool,18-24,White - English/Welsh/Scottish/Northern Irish/British,Male,White,,"{'latitude': '53.410731', 'street': {'id': 912050, 'name': 'On or near Parking Area'}, 'longitude': '-2.983190'}"
liverpool,10-17,White - English/Welsh/Scottish/Northern Irish/British,Male,White,,"{'latitude': '53.409877', 'street': {'id': 911863, 'name': 'On or near Brook Street'}, 'longitude': '-2.996259'}"
liverpool,18-24,White - English/Welsh/Scottish/Northern Irish/British,Female,White,,"{'latitude': '53.409800', 'street': {'id': 911892, 'name': 'On or near Bath Street'}, 'longitude': '-2.997927'}"
liverpool,25-34,Black/African/Caribbean/Black British - African,Male,Black,,"{'latitude': '53.403224', 'street': {'id': 910305, 'name': 'On or near Parking Area'}, 'longitude': '-2.983348'}"
liverpool,18-24,White - English/Welsh/Scottish/Northern Irish/British,Male,White,,"{'latitude': '53.409877', 'street': {'id': 911863, 'name': 'On or near Brook Street'}, 'longitude': '-2.996259'}"
liverpool,25-34,White - English/Welsh/Scottish/Northern Irish/British,Male,White,,"{'latitude': '53.401872', 'street': {'id': 910564, 'name': 'On or near Canning Place'}, 'longitude': '-2.988220'}"
liverpool,25-34,White - English/Welsh/Scottish/Northern Irish/British,Male,White,,"{'latitude': '53.393729', 'street': {'id': 910512, 'name': 'On or near Grey Street'}, 'longitude': '-2.969490'}"
liverpool,25-34,White - English/Welsh/Scottish/Northern Irish/British,Female,White,,"{'latitude': '53.391191', 'street': {'id': 908672, 'name': 'On or near Chesney Close'}, 'longitude': '-2.972048'}"
liverpool,over 34,Other ethnic group - Not stated,Male,,,"{'latitude': '53.390933', 'street': {'id': 908702, 'name': 'On or near Sefton Street'}, 'longitude': '-2.981621'}"
liverpool,over 34,White - English/Welsh/Scottish/Northern Irish/British,Female,White,,"{'latitude': '53.399100', 'street': {'id': 910479, 'name': 'On or near Back Falkner Street South'}, 'longitude': '-2.963355'}"
liverpool,25-34,White - English/Welsh/Scottish/Northern Irish/British,Male,White,,"{'latitude': '53.396263', 'street': {'id': 910404, 'name': 'On or near Upper Parliament Street'}, 'longitude': '-2.966284'}"
liverpool,over 34,Black/African/Caribbean/Black British - Caribbean,Male,Black,,"{'latitude': '53.401215', 'street': {'id': 910488, 'name': 'On or near Theatre/Concert Hall'}, 'longitude': '-2.969690'}"
liverpool,over 34,White - English/Welsh/Scottish/Northern Irish/British,Male,White,,"{'latitude': '53.397747', 'street': {'id': 910414, 'name': 'On or near Sandon Street'}, 'longitude': '-2.963866'}"
liverpool,over 34,Other ethnic group - Not stated,Male,White,,"{'latitude': '53.407057', 'street': {'id': 911877, 'name': 'On or near Nightclub'}, 'longitude': '-2.988341'}"
liverpool,over 34,White - English/Welsh/Scottish/Northern Irish/British,Male,White,,"{'latitude': '53.399512', 'street': {'id': 910444, 'name': 'On or near Hope Street'}, 'longitude': '-2.971245'}"
liverpool,18-24,White - English/Welsh/Scottish/Northern Irish/British,Male,White,,"{'latitude': '53.394753', 'street': {'id': 910440, 'name': 'On or near Lestock Street'}, 'longitude': '-2.971799'}"
liverpool,25-34,White - English/Welsh/Scottish/Northern Irish/British,Male,White,,"{'latitude': '53.402249', 'street': {'id': 910302, 'name': 'On or near Parking Area'}, 'longitude': '-2.982769'}"
liverpool,18-24,White - English/Welsh/Scottish/Northern Irish/British,Male,White,,"{'latitude': '53.398115', 'street': {'id': 910309, 'name': 'On or near Upper Frederick Street'}, 'longitude': '-2.980463'}"
liverpool,10-17,White - English/Welsh/Scottish/Northern Irish/British,Male,White,,"{'latitude': '53.398115', 'street': {'id': 910309, 'name': 'On or near Upper Frederick Street'}, 'longitude': '-2.980463'}"
liverpool,18-24,White - English/Welsh/Scottish/Northern Irish/British,Male,White,,"{'latitude': '53.405533', 'street': {'id': 910532, 'name': 'On or near Water Street'}, 'longitude': '-2.995480'}"
liverpool,25-34,White - English/Welsh/Scottish/Northern Irish/British,Male,White,,"{'latitude': '53.405533', 'street': {'id': 910532, 'name': 'On or near Water Street'}, 'longitude': '-2.995480'}"
liverpool,over 34,White - English/Welsh/Scottish/Northern Irish/British,Male,White,,"{'latitude': '53.405122', 'street': {'id': 910348, 'name': 'On or near Shopping Area'}, 'longitude': '-2.981075'}"
liverpool,18-24,White - English/Welsh/Scottish/Northern Irish/British,Male,White,,"{'latitude': '53.401472', 'street': {'id': 910306, 'name': 'On or near York Street'}, 'longitude': '-2.983338'}"
liverpool,18-24,Other ethnic group - Not stated,Male,Black,,"{'latitude': '53.394694', 'street': {'id': 910419, 'name': 'On or near Rialto Close'}, 'longitude': '-2.966820'}"
liverpool,18-24,Black/African/Caribbean/Black British - African,Male,Black,,"{'latitude': '53.401766', 'street': {'id': 910566, 'name': 'On or near Argyle Street'}, 'longitude': '-2.984758'}"
liverpool,25-34,White - Any other White background,Male,White,,"{'latitude': '53.391191', 'street': {'id': 908672, 'name': 'On or near Chesney Close'}, 'longitude': '-2.972048'}"
liverpool,over 34,White - English/Welsh/Scottish/Northern Irish/British,Male,White,,"{'latitude': '53.389799', 'street': {'id': 908662, 'name': 'On or near Laxey Street'}, 'longitude': '-2.971911'}"
liverpool,18-24,White - English/Welsh/Scottish/Northern Irish/British,Male,White,,"{'latitude': '53.400969', 'street': {'id': 910448, 'name': 'On or near Grove Street'}, 'longitude': '-2.962254'}"
liverpool,25-34,White - English/Welsh/Scottish/Northern Irish/British,Male,White,,"{'latitude': '53.402249', 'street': {'id': 910302, 'name': 'On or near Parking Area'}, 'longitude': '-2.982769'}"
liverpool,25-34,Other ethnic group - Not stated,Male,White,,"{'latitude': '53.391743', 'street': {'id': 908654, 'name': 'On or near Riverpark Gardens'}, 'longitude': '-2.972708'}"
liverpool,10-17,White - English/Welsh/Scottish/Northern Irish/British,Male,White,,"{'latitude': '53.392828', 'street': {'id': 910516, 'name': 'On or near Upper Harrington Street'}, 'longitude': '-2.975259'}"
liverpool,10-17,White - English/Welsh/Scottish/Northern Irish/British,Male,White,,"{'latitude': '53.400170', 'street': {'id': 910389, 'name': 'On or near Back Knight Street'}, 'longitude': '-2.975487'}"
liverpool,18-24,Black/African/Caribbean/Black British - Caribbean,Male,Black,,"{'latitude': '53.392811', 'street': {'id': 908673, 'name': 'On or near Arnold Crescent'}, 'longitude': '-2.964070'}"
liverpool,18-24,White - English/Welsh/Scottish/Northern Irish/British,Male,White,,"{'latitude': '53.404689', 'street': {'id': 910366, 'name': 'On or near Lawton Street'}, 'longitude': '-2.979050'}"
liverpool,10-17,White - English/Welsh/Scottish/Northern Irish/British,Male,White,,"{'latitude': '53.404689', 'street': {'id': 910366, 'name': 'On or near Lawton Street'}, 'longitude': '-2.979050'}"
liverpool,over 34,White - English/Welsh/Scottish/Northern Irish/British,Male,White,,"{'latitude': '53.391191', 'street': {'id': 908672, 'name': 'On or near Chesney Close'}, 'longitude': '-2.972048'}"
liverpool,25-34,,Male,,,"{'latitude': '53.405982', 'street': {'id': 912079, 'name': 'On or near Back Lime Street'}, 'longitude': '-2.979260'}"
liverpool,25-34,Other ethnic group - Not stated,Male,White,,"{'latitude': '53.405982', 'street': {'id': 912079, 'name': 'On or near Back Lime Street'}, 'longitude': '-2.979260'}"
liverpool,25-34,Other ethnic group - Not stated,Male,White,,"{'latitude': '53.401536', 'street': {'id': 910329, 'name': 'On or near Duke Street'}, 'longitude': '-2.980993'}"
liverpool,over 34,White - English/Welsh/Scottish/Northern Irish/British,Male,White,,"{'latitude': '53.403024', 'street': {'id': 910339, 'name': 'On or near Nightclub'}, 'longitude': '-2.979358'}"
liverpool,18-24,White - English/Welsh/Scottish/Northern Irish/British,Male,White,,"{'latitude': '53.390596', 'street': {'id': 908555, 'name': 'On or near Parking Area'}, 'longitude': '-2.986531'}"
liverpool,25-34,White - English/Welsh/Scottish/Northern Irish/British,Male,White,,"{'latitude': '53.410262', 'street': {'id': 912018, 'name': 'On or near Parking Area'}, 'longitude': '-2.976906'}"
liverpool,over 34,Black/African/Caribbean/Black British - Any other Black/African/Caribbean background,Male,Black,,"{'latitude': '53.407939', 'street': {'id': 912044, 'name': 'On or near Shopping Area'}, 'longitude': '-2.977364'}"
liverpool,10-17,Other ethnic group - Not stated,Male,,,"{'latitude': '53.409277', 'street': {'id': 912030, 'name': 'On or near Lime Street'}, 'longitude': '-2.978599'}"
liverpool,over 34,White - English/Welsh/Scottish/Northern Irish/British,Male,White,,"{'latitude': '53.405982', 'street': {'id': 912079, 'name': 'On or near Back Lime Street'}, 'longitude': '-2.979260'}"
liverpool,25-34,Other ethnic group - Not stated,Male,White,,"{'latitude': '53.407939', 'street': {'id': 912044, 'name': 'On or near Shopping Area'}, 'longitude': '-2.977364'}"
liverpool,18-24,White - English/Welsh/Scottish/Northern Irish/British,Male,White,,"{'latitude': '53.403224', 'street': {'id': 910305, 'name': 'On or near Parking Area'}, 'longitude': '-2.983348'}"
liverpool,10-17,,Male,White,,"{'latitude': '53.407939', 'street': {'id': 912044, 'name': 'On or near Shopping Area'}, 'longitude': '-2.977364'}"
liverpool,18-24,White - English/Welsh/Scottish/Northern Irish/British,Male,White,,"{'latitude': '53.405982', 'street': {'id': 912079, 'name': 'On or near Back Lime Street'}, 'longitude': '-2.979260'}"
liverpool,18-24,White - English/Welsh/Scottish/Northern Irish/British,Male,White,,"{'latitude': '53.403224', 'street': {'id': 910305, 'name': 'On or near Parking Area'}, 'longitude': '-2.983348'}"
liverpool,18-24,White - English/Welsh/Scottish/Northern Irish/British,Male,White,,"{'latitude': '53.405122', 'street': {'id': 910348, 'name': 'On or near Shopping Area'}, 'longitude': '-2.981075'}"
liverpool,18-24,White - English/Welsh/Scottish/Northern Irish/British,Male,White,,"{'latitude': '53.407939', 'street': {'id': 912044, 'name': 'On or near Shopping Area'}, 'longitude': '-2.977364'}"
liverpool,25-34,White - English/Welsh/Scottish/Northern Irish/British,Male,White,,"{'latitude': '53.405982', 'street': {'id': 912079, 'name': 'On or near Back Lime Street'}, 'longitude': '-2.979260'}"
liverpool,25-34,Mixed/Multiple ethnic groups - White and Black African,Male,Other,,"{'latitude': '53.405982', 'street': {'id': 912079, 'name': 'On or near Back Lime Street'}, 'longitude': '-2.979260'}"
liverpool,18-24,White - English/Welsh/Scottish/Northern Irish/British,Male,White,,"{'latitude': '53.405982', 'street': {'id': 912079, 'name': 'On or near Back Lime Street'}, 'longitude': '-2.979260'}"
liverpool,18-24,White - English/Welsh/Scottish/Northern Irish/British,Male,White,,"{'latitude': '53.405982', 'street': {'id': 912079, 'name': 'On or near Back Lime Street'}, 'longitude': '-2.979260'}"
liverpool,18-24,Other ethnic group - Not stated,Male,Other,,"{'latitude': '53.399022', 'street': {'id': 910529, 'name': 'On or near Parking Area'}, 'longitude': '-2.991478'}"
liverpool,over 34,Other ethnic group - Not stated,Male,White,,"{'latitude': '53.405982', 'street': {'id': 912079, 'name': 'On or near Back Lime Street'}, 'longitude': '-2.979260'}"
liverpool,25-34,White - English/Welsh/Scottish/Northern Irish/British,Male,White,,"{'latitude': '53.399955', 'street': {'id': 910321, 'name': 'On or near Kent Street'}, 'longitude': '-2.979738'}"
liverpool,18-24,Black/African/Caribbean/Black British - African,Male,White,,"{'latitude': '53.408577', 'street': {'id': 911970, 'name': 'On or near Greek Street'}, 'longitude': '-2.972926'}"
liverpool,18-24,Black/African/Caribbean/Black British - African,Male,Black,,"{'latitude': '53.408577', 'street': {'id': 911970, 'name': 'On or near Greek Street'}, 'longitude': '-2.972926'}"
liverpool,18-24,White - English/Welsh/Scottish/Northern Irish/British,Male,White,,"{'latitude': '53.401046', 'street': {'id': 910385, 'name': 'On or near Berry Street'}, 'longitude': '-2.976003'}"
liverpool,18-24,White - English/Welsh/Scottish/Northern Irish/British,Male,White,,"{'latitude': '53.408016', 'street': {'id': 911820, 'name': 'On or near New Quay'}, 'longitude': '-2.996245'}"
liverpool,18-24,Other ethnic group - Not stated,Male,Black,,"{'latitude': '53.396374', 'street': {'id': 910130, 'name': 'On or near Kimberley Close'}, 'longitude': '-2.960210'}"
liverpool,10-17,White - English/Welsh/Scottish/Northern Irish/British,Male,White,,"{'latitude': '53.412437', 'street': {'id': 912023, 'name': 'On or near St Josephs Crescent'}, 'longitude': '-2.977994'}"
liverpool,25-34,Other ethnic group - Not stated,Male,,,"{'latitude': '53.395832', 'street': {'id': 910105, 'name': 'On or near Selborne Street'}, 'longitude': '-2.960544'}"
liverpool,18-24,White - English/Welsh/Scottish/Northern Irish/British,Male,White,,"{'latitude': '53.402928', 'street': {'id': 910353, 'name': 'On or near Wood Street'}, 'longitude': '-2.978904'}"
liverpool,25-34,White - English/Welsh/Scottish/Northern Irish/British,Male,White,,"{'latitude': '53.411502', 'street': {'id': 912035, 'name': 'On or near Gerard Street'}, 'longitude': '-2.979116'}"
liverpool,18-24,Mixed/Multiple ethnic groups - Any other Mixed/Multiple ethnic background,Male,,,"{'latitude': '53.399373', 'street': {'id': 910528, 'name': 'On or near Parking Area'}, 'longitude': '-2.989336'}"
liverpool,25-34,White - English/Welsh/Scottish/Northern Irish/British,Male,White,,"{'latitude': '53.399373', 'street': {'id': 910528, 'name': 'On or near Parking Area'}, 'longitude': '-2.989336'}"
liverpool,18-24,Other ethnic group - Not stated,,White,,"{'latitude': '53.396263', 'street': {'id': 910404, 'name': 'On or near Upper Parliament Street'}, 'longitude': '-2.966284'}"
liverpool,25-34,White - English/Welsh/Scottish/Northern Irish/British,Male,White,,"{'latitude': '53.393409', 'street': {'id': 910515, 'name': 'On or near Fisher Street'}, 'longitude': '-2.980009'}"
liverpool,over 34,White - English/Welsh/Scottish/Northern Irish/British,Male,White,,"{'latitude': '53.408898', 'street': {'id': 911831, 'name': 'On or near Hockenhall Alley'}, 'longitude': '-2.987481'}"
liverpool,25-34,White - Any other White background,Male,White,,"{'latitude': '53.410587', 'street': {'id': 911787, 'name': 'On or near Parking Area'}, 'longitude': '-2.994169'}"
liverpool,18-24,White - English/Welsh/Scottish/Northern Irish/British,Male,White,,"{'latitude': '53.407939', 'street': {'id': 912044, 'name': 'On or near Shopping Area'}, 'longitude': '-2.977364'}"
liverpool,10-17,Other ethnic group - Not stated,Male,White,,"{'latitude': '53.405982', 'street': {'id': 912079, 'name': 'On or near Back Lime Street'}, 'longitude': '-2.979260'}"
liverpool,18-24,White - English/Welsh/Scottish/Northern Irish/British,Male,White,,"{'latitude': '53.405982', 'street': {'id': 912079, 'name': 'On or near Back Lime Street'}, 'longitude': '-2.979260'}"
liverpool,25-34,,Male,Other,,"{'latitude': '53.407939', 'street': {'id': 912044, 'name': 'On or near Shopping Area'}, 'longitude': '-2.977364'}"
liverpool,18-24,White - English/Welsh/Scottish/Northern Irish/British,Male,White,,"{'latitude': '53.405982', 'street': {'id': 912079, 'name': 'On or near Back Lime Street'}, 'longitude': '-2.979260'}"
liverpool,18-24,White - English/Welsh/Scottish/Northern Irish/British,Male,White,,"{'latitude': '53.407939', 'street': {'id': 912044, 'name': 'On or near Shopping Area'}, 'longitude': '-2.977364'}"
liverpool,18-24,Other ethnic group - Not stated,Male,White,,"{'latitude': '53.405982', 'street': {'id': 912079, 'name': 'On or near Back Lime Street'}, 'longitude': '-2.979260'}"
liverpool,18-24,White - English/Welsh/Scottish/Northern Irish/British,Male,White,,"{'latitude': '53.407939', 'street': {'id': 912044, 'name': 'On or near Shopping Area'}, 'longitude': '-2.977364'}"
liverpool,25-34,White - English/Welsh/Scottish/Northern Irish/British,Male,White,,"{'latitude': '53.407939', 'street': {'id': 912044, 'name': 'On or near Shopping Area'}, 'longitude': '-2.977364'}"
liverpool,18-24,White - Any other White background,Male,White,,"{'latitude': '53.405982', 'street': {'id': 912079, 'name': 'On or near Back Lime Street'}, 'longitude': '-2.979260'}"
liverpool,10-17,White - English/Welsh/Scottish/Northern Irish/British,Male,White,,"{'latitude': '53.405982', 'street': {'id': 912079, 'name': 'On or near Back Lime Street'}, 'longitude': '-2.979260'}"
liverpool,18-24,White - English/Welsh/Scottish/Northern Irish/British,Male,White,,"{'latitude': '53.407939', 'street': {'id': 912044, 'name': 'On or near Shopping Area'}, 'longitude': '-2.977364'}"
liverpool,18-24,White - English/Welsh/Scottish/Northern Irish/British,Male,White,,"{'latitude': '53.405982', 'street': {'id': 912079, 'name': 'On or near Back Lime Street'}, 'longitude': '-2.979260'}"
liverpool,18-24,White - English/Welsh/Scottish/Northern Irish/British,Female,White,,"{'latitude': '53.407939', 'street': {'id': 912044, 'name': 'On or near Shopping Area'}, 'longitude': '-2.977364'}"
liverpool,over 34,Mixed/Multiple ethnic groups - White and Asian,Male,Asian,,"{'latitude': '53.392828', 'street': {'id': 910516, 'name': 'On or near Upper Harrington Street'}, 'longitude': '-2.975259'}"
liverpool,18-24,Other ethnic group - Not stated,Male,White,,"{'latitude': '53.405982', 'street': {'id': 912079, 'name': 'On or near Back Lime Street'}, 'longitude': '-2.979260'}"
liverpool,18-24,White - English/Welsh/Scottish/Northern Irish/British,Male,White,,"{'latitude': '53.407939', 'street': {'id': 912044, 'name': 'On or near Shopping Area'}, 'longitude': '-2.977364'}"
liverpool,18-24,White - English/Welsh/Scottish/Northern Irish/British,Male,White,,"{'latitude': '53.407939', 'street': {'id': 912044, 'name': 'On or near Shopping Area'}, 'longitude': '-2.977364'}"
liverpool,25-34,White - English/Welsh/Scottish/Northern Irish/British,Male,White,,"{'latitude': '53.391191', 'street': {'id': 908672, 'name': 'On or near Chesney Close'}, 'longitude': '-2.972048'}"
liverpool,10-17,White - English/Welsh/Scottish/Northern Irish/British,Male,White,,"{'latitude': '53.407939', 'street': {'id': 912044, 'name': 'On or near Shopping Area'}, 'longitude': '-2.977364'}"
liverpool,18-24,White - English/Welsh/Scottish/Northern Irish/British,Male,White,,"{'latitude': '53.407939', 'street': {'id': 912044, 'name': 'On or near Shopping Area'}, 'longitude': '-2.977364'}"
liverpool,18-24,Other ethnic group - Not stated,Male,,,"{'latitude': '53.405982', 'street': {'id': 912079, 'name': 'On or near Back Lime Street'}, 'longitude': '-2.979260'}"
liverpool,over 34,White - Irish,Male,White,,"{'latitude': '53.407939', 'street': {'id': 912044, 'name': 'On or near Shopping Area'}, 'longitude': '-2.977364'}"
liverpool,over 34,Black/African/Caribbean/Black British - African,Male,Black,,"{'latitude': '53.407939', 'street': {'id': 912044, 'name': 'On or near Shopping Area'}, 'longitude': '-2.977364'}"
liverpool,18-24,White - English/Welsh/Scottish/Northern Irish/British,Male,White,,"{'latitude': '53.407939', 'street': {'id': 912044, 'name': 'On or near Shopping Area'}, 'longitude': '-2.977364'}"
liverpool,18-24,White - English/Welsh/Scottish/Northern Irish/British,Male,White,,"{'latitude': '53.407939', 'street': {'id': 912044, 'name': 'On or near Shopping Area'}, 'longitude': '-2.977364'}"
liverpool,10-17,White - English/Welsh/Scottish/Northern Irish/British,Male,White,,"{'latitude': '53.407939', 'street': {'id': 912044, 'name': 'On or near Shopping Area'}, 'longitude': '-2.977364'}"
liverpool,18-24,White - English/Welsh/Scottish/Northern Irish/British,Male,White,,"{'latitude': '53.407939', 'street': {'id': 912044, 'name': 'On or near Shopping Area'}, 'longitude': '-2.977364'}"
liverpool,18-24,White - English/Welsh/Scottish/Northern Irish/British,Male,White,,"{'latitude': '53.407939', 'street': {'id': 912044, 'name': 'On or near Shopping Area'}, 'longitude': '-2.977364'}"
liverpool,25-34,White - English/Welsh/Scottish/Northern Irish/British,Male,White,,"{'latitude': '53.401472', 'street': {'id': 910306, 'name': 'On or near York Street'}, 'longitude': '-2.983338'}"
liverpool,over 34,White - Irish,Male,White,,"{'latitude': '53.402949', 'street': {'id': 910397, 'name': 'On or near Nightclub'}, 'longitude': '-2.978559'}"
liverpool,18-24,White - English/Welsh/Scottish/Northern Irish/British,Female,White,,"{'latitude': '53.406935', 'street': {'id': 911797, 'name': 'On or near Sweeting Street'}, 'longitude': '-2.990098'}"
liverpool,18-24,Black/African/Caribbean/Black British - Any other Black/African/Caribbean background,Male,Black,,"{'latitude': '53.392368', 'street': {'id': 908663, 'name': 'On or near Hillaby Close'}, 'longitude': '-2.963203'}"
liverpool,25-34,White - English/Welsh/Scottish/Northern Irish/British,Male,White,,"{'latitude': '53.391191', 'street': {'id': 908672, 'name': 'On or near Chesney Close'}, 'longitude': '-2.972048'}"
liverpool,over 34,White - English/Welsh/Scottish/Northern Irish/British,Male,White,,"{'latitude': '53.413710', 'street': {'id': 912045, 'name': 'On or near Police Station'}, 'longitude': '-2.978384'}"
liverpool,18-24,White - English/Welsh/Scottish/Northern Irish/British,Male,White,,"{'latitude': '53.411693', 'street': {'id': 911809, 'name': 'On or near Princes Gardens'}, 'longitude': '-2.990870'}"
liverpool,18-24,White - English/Welsh/Scottish/Northern Irish/British,Male,White,,"{'latitude': '53.411693', 'street': {'id': 911809, 'name': 'On or near Princes Gardens'}, 'longitude': '-2.990870'}"
liverpool,18-24,White - English/Welsh/Scottish/Northern Irish/British,Male,White,,"{'latitude': '53.398545', 'street': {'id': 910459, 'name': 'On or near Catharine Street'}, 'longitude': '-2.968591'}"
liverpool,10-17,Other ethnic group - Not stated,Male,,,"{'latitude': '53.392368', 'street': {'id': 908663, 'name': 'On or near Hillaby Close'}, 'longitude': '-2.963203'}"
liverpool,18-24,White - English/Welsh/Scottish/Northern Irish/British,Female,White,,"{'latitude': '53.411693', 'street': {'id': 911809, 'name': 'On or near Princes Gardens'}, 'longitude': '-2.990870'}"
liverpool,25-34,White - English/Welsh/Scottish/Northern Irish/British,Male,White,,"{'latitude': '53.392246', 'street': {'id': 908704, 'name': 'On or near Crow Street'}, 'longitude': '-2.981486'}"
liverpool,25-34,White - Any other White background,Male,White,,"{'latitude': '53.405648', 'street': {'id': 910569, 'name': 'On or near Shopping Area'}, 'longitude': '-2.987014'}"
liverpool,18-24,Other ethnic group - Not stated,Male,Black,,"{'latitude': '53.392246', 'street': {'id': 908704, 'name': 'On or near Crow Street'}, 'longitude': '-2.981486'}"
liverpool,18-24,White - English/Welsh/Scottish/Northern Irish/British,Male,White,,"{'latitude': '53.392246', 'street': {'id': 908704, 'name': 'On or near Crow Street'}, 'longitude': '-2.981486'}"
liverpool,18-24,White - English/Welsh/Scottish/Northern Irish/British,Male,White,,"{'latitude': '53.392246', 'street': {'id': 908704, 'name': 'On or near Crow Street'}, 'longitude': '-2.981486'}"
liverpool,over 34,Other ethnic group - Not stated,Male,White,,"{'latitude': '53.393773', 'street': {'id': 910328, 'name': 'On or near Dwerryhouse Street'}, 'longitude': '-2.981626'}"
liverpool,18-24,White - English/Welsh/Scottish/Northern Irish/British,Male,White,,"{'latitude': '53.411693', 'street': {'id': 911809, 'name': 'On or near Princes Gardens'}, 'longitude': '-2.990870'}"
liverpool,25-34,White - English/Welsh/Scottish/Northern Irish/British,Male,White,,"{'latitude': '53.405122', 'street': {'id': 910348, 'name': 'On or near Shopping Area'}, 'longitude': '-2.981075'}"
liverpool,over 34,White - English/Welsh/Scottish/Northern Irish/British,Male,White,,"{'latitude': '53.411693', 'street': {'id': 911809, 'name': 'On or near Princes Gardens'}, 'longitude': '-2.990870'}"
liverpool,over 34,Other ethnic group - Any other ethnic group,Male,Other,,"{'latitude': '53.397329', 'street': {'id': 910435, 'name': 'On or near Lowther Street'}, 'longitude': '-2.962247'}"
liverpool,10-17,White - English/Welsh/Scottish/Northern Irish/British,Male,White,,"{'latitude': '53.401872', 'street': {'id': 910564, 'name': 'On or near Canning Place'}, 'longitude': '-2.988220'}"
liverpool,25-34,White - English/Welsh/Scottish/Northern Irish/British,Female,White,,"{'latitude': '53.410021', 'street': {'id': 911835, 'name': 'On or near Hadwens Buildings'}, 'longitude': '-2.989808'}"
liverpool,18-24,White - English/Welsh/Scottish/Northern Irish/British,Male,White,,"{'latitude': '53.409256', 'street': {'id': 911941, 'name': 'On or near Norton Street'}, 'longitude': '-2.974566'}"
liverpool,25-34,White - Any other White background,Male,White,,"{'latitude': '53.399383', 'street': {'id': 910315, 'name': 'On or near Pitt Street'}, 'longitude': '-2.981515'}"
liverpool,10-17,Mixed/Multiple ethnic groups - Any other Mixed/Multiple ethnic background,Male,Black,,"{'latitude': '53.399383', 'street': {'id': 910315, 'name': 'On or near Pitt Street'}, 'longitude': '-2.981515'}"
liverpool,over 34,White - English/Welsh/Scottish/Northern Irish/British,Male,White,,"{'latitude': '53.409038', 'street': {'id': 911850, 'name': 'On or near Dale Street (Queensway)'}, 'longitude': '-2.985799'}"
liverpool,18-24,Other ethnic group - Not stated,Male,,,"{'latitude': '53.405982', 'street': {'id': 912079, 'name': 'On or near Back Lime Street'}, 'longitude': '-2.979260'}"
liverpool,18-24,White - Any other White background,Male,White,,"{'latitude': '53.405982', 'street': {'id': 912079, 'name': 'On or near Back Lime Street'}, 'longitude': '-2.979260'}"
liverpool,over 34,White - English/Welsh/Scottish/Northern Irish/British,Male,White,,"{'latitude': '53.413710', 'street': {'id': 912045, 'name': 'On or near Police Station'}, 'longitude': '-2.978384'}"
liverpool,25-34,Mixed/Multiple ethnic groups - White and Black African,Male,Black,,"{'latitude': '53.395239', 'street': {'id': 910401, 'name': 'On or near Parking Area'}, 'longitude': '-2.968381'}"
liverpool,over 34,White - English/Welsh/Scottish/Northern Irish/British,Male,,,"{'latitude': '53.405272', 'street': {'id': 910501, 'name': 'On or near Further/Higher Educational Building'}, 'longitude': '-2.964818'}"
liverpool,over 34,White - English/Welsh/Scottish/Northern Irish/British,Male,White,,"{'latitude': '53.388992', 'street': {'id': 908683, 'name': 'On or near Southern Crescent'}, 'longitude': '-2.978284'}"
liverpool,18-24,White - English/Welsh/Scottish/Northern Irish/British,Male,White,,"{'latitude': '53.388992', 'street': {'id': 908683, 'name': 'On or near Southern Crescent'}, 'longitude': '-2.978284'}"
liverpool,10-17,White - English/Welsh/Scottish/Northern Irish/British,Male,White,,"{'latitude': '53.399241', 'street': {'id': 910378, 'name': 'On or near Cornwallis Street'}, 'longitude': '-2.979105'}"
liverpool,10-17,White - English/Welsh/Scottish/Northern Irish/British,Male,White,,"{'latitude': '53.392828', 'street': {'id': 910516, 'name': 'On or near Upper Harrington Street'}, 'longitude': '-2.975259'}"
liverpool,25-34,White - English/Welsh/Scottish/Northern Irish/British,Male,White,,"{'latitude': '53.392828', 'street': {'id': 910516, 'name': 'On or near Upper Harrington Street'}, 'longitude': '-2.975259'}"
liverpool,10-17,White - English/Welsh/Scottish/Northern Irish/British,Male,White,,"{'latitude': '53.395487', 'street': {'id': 910527, 'name': 'On or near Parking Area'}, 'longitude': '-2.990764'}"
liverpool,over 34,Other ethnic group - Not stated,Male,White,,"{'latitude': '53.392828', 'street': {'id': 910516, 'name': 'On or near Upper Harrington Street'}, 'longitude': '-2.975259'}"
liverpool,25-34,White - English/Welsh/Scottish/Northern Irish/British,Male,White,,"{'latitude': '53.392828', 'street': {'id': 910516, 'name': 'On or near Upper Harrington Street'}, 'longitude': '-2.975259'}"
liverpool,18-24,White - English/Welsh/Scottish/Northern Irish/British,Male,White,,"{'latitude': '53.393773', 'street': {'id': 910328, 'name': 'On or near Dwerryhouse Street'}, 'longitude': '-2.981626'}"
liverpool,18-24,White - English/Welsh/Scottish/Northern Irish/British,Male,White,,"{'latitude': '53.393773', 'street': {'id': 910328, 'name': 'On or near Dwerryhouse Street'}, 'longitude': '-2.981626'}"
liverpool,18-24,White - English/Welsh/Scottish/Northern Irish/British,Male,White,,"{'latitude': '53.393773', 'street': {'id': 910328, 'name': 'On or near Dwerryhouse Street'}, 'longitude': '-2.981626'}"
liverpool,25-34,White - English/Welsh/Scottish/Northern Irish/British,Male,White,,"{'latitude': '53.387987', 'street': {'id': 908574, 'name': 'On or near Southwell Street'}, 'longitude': '-2.973674'}"
liverpool,over 34,White - English/Welsh/Scottish/Northern Irish/British,Male,White,,"{'latitude': '53.389788', 'street': {'id': 908709, 'name': 'On or near Shaftesbury Street'}, 'longitude': '-2.974272'}"
liverpool,over 34,White - English/Welsh/Scottish/Northern Irish/British,Male,White,,"{'latitude': '53.389788', 'street': {'id': 908709, 'name': 'On or near Shaftesbury Street'}, 'longitude': '-2.974272'}"
liverpool,over 34,White - English/Welsh/Scottish/Northern Irish/British,Male,White,,"{'latitude': '53.411693', 'street': {'id': 911809, 'name': 'On or near Princes Gardens'}, 'longitude': '-2.990870'}"
liverpool,25-34,White - English/Welsh/Scottish/Northern Irish/British,Male,White,,"{'latitude': '53.399383', 'street': {'id': 910315, 'name': 'On or near Pitt Street'}, 'longitude': '-2.981515'}"
liverpool,18-24,White - English/Welsh/Scottish/Northern Irish/British,Male,White,,"{'latitude': '53.398115', 'street': {'id': 910309, 'name': 'On or near Upper Frederick Street'}, 'longitude': '-2.980463'}"
liverpool,25-34,White - English/Welsh/Scottish/Northern Irish/British,Male,White,,"{'latitude': '53.391191', 'street': {'id': 908672, 'name': 'On or near Chesney Close'}, 'longitude': '-2.972048'}"
liverpool,18-24,White - English/Welsh/Scottish/Northern Irish/British,Male,White,,"{'latitude': '53.389262', 'street': {'id': 908600, 'name': 'On or near Micawber Close'}, 'longitude': '-2.967118'}"
liverpool,over 34,White - English/Welsh/Scottish/Northern Irish/British,Male,White,,"{'latitude': '53.402337', 'street': {'id': 910332, 'name': 'On or near Campbell Street'}, 'longitude': '-2.984170'}"
liverpool,over 34,White - English/Welsh/Scottish/Northern Irish/British,Male,White,,"{'latitude': '53.387386', 'street': {'id': 908692, 'name': 'On or near Doddridge Road'}, 'longitude': '-2.977811'}"
liverpool,over 34,White - English/Welsh/Scottish/Northern Irish/British,Male,White,,"{'latitude': '53.411502', 'street': {'id': 912035, 'name': 'On or near Gerard Street'}, 'longitude': '-2.979116'}"
liverpool,25-34,White - English/Welsh/Scottish/Northern Irish/British,Female,White,,"{'latitude': '53.401748', 'street': {'id': 910336, 'name': 'On or near Nightclub'}, 'longitude': '-2.982547'}"
liverpool,18-24,White - English/Welsh/Scottish/Northern Irish/British,Male,White,,"{'latitude': '53.408812', 'street': {'id': 911793, 'name': 'On or near Union Street'}, 'longitude': '-2.994654'}"
liverpool,18-24,White - English/Welsh/Scottish/Northern Irish/British,Male,White,,"{'latitude': '53.401766', 'street': {'id': 910566, 'name': 'On or near Argyle Street'}, 'longitude': '-2.984758'}"
liverpool,over 34,Other ethnic group - Not stated,Male,White,,"{'latitude': '53.401766', 'street': {'id': 910566, 'name': 'On or near Argyle Street'}, 'longitude': '-2.984758'}"
liverpool,25-34,White - English/Welsh/Scottish/Northern Irish/British,Male,White,,"{'latitude': '53.401094', 'street': {'id': 910323, 'name': 'On or near Henry Street'}, 'longitude': '-2.981133'}"
liverpool,18-24,White - English/Welsh/Scottish/Northern Irish/British,Male,White,,"{'latitude': '53.401872', 'street': {'id': 910564, 'name': 'On or near Canning Place'}, 'longitude': '-2.988220'}"
liverpool,25-34,White - English/Welsh/Scottish/Northern Irish/British,Male,White,,"{'latitude': '53.411064', 'street': {'id': 911945, 'name': 'On or near Moss Street'}, 'longitude': '-2.967793'}"
liverpool,10-17,White - English/Welsh/Scottish/Northern Irish/British,Male,White,,"{'latitude': '53.401872', 'street': {'id': 910564, 'name': 'On or near Canning Place'}, 'longitude': '-2.988220'}"
liverpool,10-17,White - English/Welsh/Scottish/Northern Irish/British,Male,White,,"{'latitude': '53.401872', 'street': {'id': 910564, 'name': 'On or near Canning Place'}, 'longitude': '-2.988220'}"
liverpool,18-24,White - English/Welsh/Scottish/Northern Irish/British,Male,White,,"{'latitude': '53.401872', 'street': {'id': 910564, 'name': 'On or near Canning Place'}, 'longitude': '-2.988220'}"
liverpool,18-24,White - English/Welsh/Scottish/Northern Irish/British,Male,White,,"{'latitude': '53.400195', 'street': {'id': 910326, 'name': 'On or near Gilbert Street'}, 'longitude': '-2.982256'}"
liverpool,25-34,White - English/Welsh/Scottish/Northern Irish/British,Male,White,,"{'latitude': '53.401872', 'street': {'id': 910564, 'name': 'On or near Canning Place'}, 'longitude': '-2.988220'}"
liverpool,18-24,White - English/Welsh/Scottish/Northern Irish/British,Male,White,,"{'latitude': '53.385987', 'street': {'id': 908700, 'name': 'On or near Brunswick Way'}, 'longitude': '-2.980711'}"
liverpool,10-17,White - English/Welsh/Scottish/Northern Irish/British,Male,White,,"{'latitude': '53.392828', 'street': {'id': 910516, 'name': 'On or near Upper Harrington Street'}, 'longitude': '-2.975259'}"
liverpool,over 34,Other ethnic group - Not stated,Male,White,,"{'latitude': '53.392828', 'street': {'id': 910516, 'name': 'On or near Upper Harrington Street'}, 'longitude': '-2.975259'}"
liverpool,25-34,White - Any other White background,Male,White,,"{'latitude': '53.407939', 'street': {'id': 912044, 'name': 'On or near Shopping Area'}, 'longitude': '-2.977364'}"
liverpool,25-34,White - English/Welsh/Scottish/Northern Irish/British,Male,White,,"{'latitude': '53.398866', 'street': {'id': 910482, 'name': 'On or near Back Catharine Street'}, 'longitude': '-2.967847'}"
liverpool,18-24,White - Any other White background,Male,White,,"{'latitude': '53.405226', 'street': {'id': 910546, 'name': 'On or near Lord Street'}, 'longitude': '-2.989201'}"
liverpool,,Other ethnic group - Not stated,,,,"{'latitude': '53.401046', 'street': {'id': 910385, 'name': 'On or near Berry Street'}, 'longitude': '-2.976003'}"
liverpool,25-34,White - English/Welsh/Scottish/Northern Irish/British,Male,White,,"{'latitude': '53.394753', 'street': {'id': 910440, 'name': 'On or near Lestock Street'}, 'longitude': '-2.971799'}"
liverpool,18-24,Black/African/Caribbean/Black British - African,Female,Black,,"{'latitude': '53.390943', 'street': {'id': 908714, 'name': 'On or near Grafton Street'}, 'longitude': '-2.978148'}"
liverpool,18-24,White - English/Welsh/Scottish/Northern Irish/British,Male,White,,"{'latitude': '53.401472', 'street': {'id': 910306, 'name': 'On or near York Street'}, 'longitude': '-2.983338'}"
liverpool,18-24,Black/African/Caribbean/Black British - Caribbean,Male,Black,,"{'latitude': '53.403765', 'street': {'id': 910519, 'name': 'On or near Parking Area'}, 'longitude': '-2.990791'}"
liverpool,25-34,White - English/Welsh/Scottish/Northern Irish/British,Male,White,,"{'latitude': '53.400170', 'street': {'id': 910389, 'name': 'On or near Back Knight Street'}, 'longitude': '-2.975487'}"
liverpool,over 34,White - English/Welsh/Scottish/Northern Irish/British,Female,White,,"{'latitude': '53.412172', 'street': {'id': 911948, 'name': 'On or near Maritime Place'}, 'longitude': '-2.973008'}"
liverpool,25-34,Other ethnic group - Not stated,Male,,,"{'latitude': '53.406057', 'street': {'id': 911899, 'name': 'On or near Nightclub'}, 'longitude': '-2.987595'}"
liverpool,18-24,White - English/Welsh/Scottish/Northern Irish/British,Male,White,,"{'latitude': '53.402057', 'street': {'id': 910537, 'name': 'On or near Strand Street'}, 'longitude': '-2.989774'}"
liverpool,18-24,White - English/Welsh/Scottish/Northern Irish/British,Female,White,,"{'latitude': '53.405771', 'street': {'id': 910343, 'name': 'On or near Shopping Area'}, 'longitude': '-2.981888'}"
liverpool,10-17,Other ethnic group - Not stated,Male,Black,,"{'latitude': '53.402057', 'street': {'id': 910537, 'name': 'On or near Strand Street'}, 'longitude': '-2.989774'}"
liverpool,10-17,White - English/Welsh/Scottish/Northern Irish/British,Male,White,,"{'latitude': '53.402057', 'street': {'id': 910537, 'name': 'On or near Strand Street'}, 'longitude': '-2.989774'}"
liverpool,over 34,White - English/Welsh/Scottish/Northern Irish/British,Male,White,,"{'latitude': '53.412966', 'street': {'id': 911827, 'name': 'On or near Leeds Street'}, 'longitude': '-2.989034'}"
liverpool,10-17,White - English/Welsh/Scottish/Northern Irish/British,Male,White,,"{'latitude': '53.402057', 'street': {'id': 910537, 'name': 'On or near Strand Street'}, 'longitude': '-2.989774'}"
liverpool,25-34,White - English/Welsh/Scottish/Northern Irish/British,Male,White,,"{'latitude': '53.399955', 'street': {'id': 910321, 'name': 'On or near Kent Street'}, 'longitude': '-2.979738'}"
liverpool,18-24,White - English/Welsh/Scottish/Northern Irish/British,Male,White,,"{'latitude': '53.394590', 'street': {'id': 910465, 'name': 'On or near Blair Street'}, 'longitude': '-2.972998'}"
liverpool,18-24,Asian/Asian British - Any other Asian background,Male,Asian,,"{'latitude': '53.400732', 'street': {'id': 910320, 'name': 'On or near Lydia Ann Street'}, 'longitude': '-2.981471'}"
liverpool,10-17,White - English/Welsh/Scottish/Northern Irish/British,Male,White,,"{'latitude': '53.406392', 'street': {'id': 912083, 'name': 'On or near Elliot Street'}, 'longitude': '-2.979600'}"
liverpool,18-24,White - English/Welsh/Scottish/Northern Irish/British,Male,White,,"{'latitude': '53.401046', 'street': {'id': 910385, 'name': 'On or near Berry Street'}, 'longitude': '-2.976003'}"
liverpool,18-24,,Male,Other,,"{'latitude': '53.401472', 'street': {'id': 910306, 'name': 'On or near York Street'}, 'longitude': '-2.983338'}"
liverpool,18-24,White - English/Welsh/Scottish/Northern Irish/British,Male,White,,"{'latitude': '53.403765', 'street': {'id': 910519, 'name': 'On or near Parking Area'}, 'longitude': '-2.990791'}"
liverpool,18-24,,Male,Other,,"{'latitude': '53.401472', 'street': {'id': 910306, 'name': 'On or near York Street'}, 'longitude': '-2.983338'}"
liverpool,18-24,Other ethnic group - Not stated,Male,White,,"{'latitude': '53.405982', 'street': {'id': 912079, 'name': 'On or near Back Lime Street'}, 'longitude': '-2.979260'}"
liverpool,25-34,White - English/Welsh/Scottish/Northern Irish/British,Male,White,,"{'latitude': '53.406392', 'street': {'id': 912083, 'name': 'On or near Elliot Street'}, 'longitude': '-2.979600'}"
liverpool,18-24,Mixed/Multiple ethnic groups - Any other Mixed/Multiple ethnic background,Male,Asian,,"{'latitude': '53.409809', 'street': {'id': 912037, 'name': 'On or near Commutation Row'}, 'longitude': '-2.978355'}"
liverpool,18-24,White - English/Welsh/Scottish/Northern Irish/British,Male,White,,"{'latitude': '53.404583', 'street': {'id': 910347, 'name': 'On or near Shopping Area'}, 'longitude': '-2.979950'}"
liverpool,10-17,White - English/Welsh/Scottish/Northern Irish/British,Male,White,,"{'latitude': '53.404583', 'street': {'id': 910347, 'name': 'On or near Shopping Area'}, 'longitude': '-2.979950'}"
liverpool,18-24,White - English/Welsh/Scottish/Northern Irish/British,Male,White,,"{'latitude': '53.404583', 'street': {'id': 910347, 'name': 'On or near Shopping Area'}, 'longitude': '-2.979950'}"
liverpool,over 34,Other ethnic group - Not stated,Male,Other,,"{'latitude': '53.410047', 'street': {'id': 911834, 'name': 'On or near Hatton Garden'}, 'longitude': '-2.986620'}"
liverpool,25-34,White - English/Welsh/Scottish/Northern Irish/British,Male,White,,"{'latitude': '53.407939', 'street': {'id': 912044, 'name': 'On or near Shopping Area'}, 'longitude': '-2.977364'}"
liverpool,10-17,Other ethnic group - Not stated,Male,,,"{'latitude': '53.407939', 'street': {'id': 912044, 'name': 'On or near Shopping Area'}, 'longitude': '-2.977364'}"
liverpool,25-34,White - English/Welsh/Scottish/Northern Irish/British,Male,White,,"{'latitude': '53.407939', 'street': {'id': 912044, 'name': 'On or near Shopping Area'}, 'longitude': '-2.977364'}"
liverpool,over 34,White - English/Welsh/Scottish/Northern Irish/British,Male,White,,"{'latitude': '53.407939', 'street': {'id': 912044, 'name': 'On or near Shopping Area'}, 'longitude': '-2.977364'}"
liverpool,25-34,White - English/Welsh/Scottish/Northern Irish/British,Male,White,,"{'latitude': '53.410420', 'street': {'id': 912031, 'name': 'On or near Islington'}, 'longitude': '-2.977301'}"
liverpool,over 34,White - English/Welsh/Scottish/Northern Irish/British,Male,White,,"{'latitude': '53.407939', 'street': {'id': 912044, 'name': 'On or near Shopping Area'}, 'longitude': '-2.977364'}"
liverpool,18-24,White - English/Welsh/Scottish/Northern Irish/British,Male,White,,"{'latitude': '53.407939', 'street': {'id': 912044, 'name': 'On or near Shopping Area'}, 'longitude': '-2.977364'}"
liverpool,25-34,White - English/Welsh/Scottish/Northern Irish/British,Male,White,,"{'latitude': '53.405982', 'street': {'id': 912079, 'name': 'On or near Back Lime Street'}, 'longitude': '-2.979260'}"
liverpool,over 34,White - English/Welsh/Scottish/Northern Irish/British,Male,White,,"{'latitude': '53.413710', 'street': {'id': 912045, 'name': 'On or near Police Station'}, 'longitude': '-2.978384'}"
liverpool,10-17,Mixed/Multiple ethnic groups - White and Asian,Male,Asian,,"{'latitude': '53.407939', 'street': {'id': 912044, 'name': 'On or near Shopping Area'}, 'longitude': '-2.977364'}"
liverpool,10-17,White - English/Welsh/Scottish/Northern Irish/British,Male,White,,"{'latitude': '53.407939', 'street': {'id': 912044, 'name': 'On or near Shopping Area'}, 'longitude': '-2.977364'}"
liverpool,18-24,White - Any other White background,Male,White,,"{'latitude': '53.410420', 'street': {'id': 912031, 'name': 'On or near Islington'}, 'longitude': '-2.977301'}"
liverpool,18-24,White - English/Welsh/Scottish/Northern Irish/British,Male,White,,"{'latitude': '53.391191', 'street': {'id': 908672, 'name': 'On or near Chesney Close'}, 'longitude': '-2.972048'}"
liverpool,25-34,White - English/Welsh/Scottish/Northern Irish/British,Male,White,,"{'latitude': '53.405982', 'street': {'id': 912079, 'name': 'On or near Back Lime Street'}, 'longitude': '-2.979260'}"
liverpool,18-24,White - English/Welsh/Scottish/Northern Irish/British,Female,White,,"{'latitude': '53.406398', 'street': {'id': 912082, 'name': 'On or near Further/Higher Educational Building'}, 'longitude': '-2.975569'}"
liverpool,18-24,White - English/Welsh/Scottish/Northern Irish/British,Male,White,,"{'latitude': '53.398306', 'street': {'id': 910533, 'name': 'On or near Wapping'}, 'longitude': '-2.986739'}"
liverpool,10-17,White - English/Welsh/Scottish/Northern Irish/British,Male,White,,"{'latitude': '53.407939', 'street': {'id': 912044, 'name': 'On or near Shopping Area'}, 'longitude': '-2.977364'}"
liverpool,18-24,Other ethnic group - Not stated,Male,White,,"{'latitude': '53.407939', 'street': {'id': 912044, 'name': 'On or near Shopping Area'}, 'longitude': '-2.977364'}"
liverpool,18-24,White - English/Welsh/Scottish/Northern Irish/British,Male,White,,"{'latitude': '53.406227', 'street': {'id': 912087, 'name': 'On or near Brownlow Hill'}, 'longitude': '-2.962418'}"
liverpool,10-17,White - Any other White background,Male,White,,"{'latitude': '53.396263', 'street': {'id': 910404, 'name': 'On or near Upper Parliament Street'}, 'longitude': '-2.966284'}"
liverpool,over 34,White - English/Welsh/Scottish/Northern Irish/British,Male,White,,"{'latitude': '53.407376', 'street': {'id': 912074, 'name': 'On or near Theatre/Concert Hall'}, 'longitude': '-2.981323'}"
liverpool,25-34,White - English/Welsh/Scottish/Northern Irish/British,Male,White,,"{'latitude': '53.402353', 'street': {'id': 910560, 'name': 'On or near Duke Street Lane'}, 'longitude': '-2.985464'}"
liverpool,over 34,White - English/Welsh/Scottish/Northern Irish/British,Male,White,,"{'latitude': '53.410262', 'street': {'id': 912018, 'name': 'On or near Parking Area'}, 'longitude': '-2.976906'}"
liverpool,over 34,White - English/Welsh/Scottish/Northern Irish/British,Male,White,,"{'latitude': '53.402353', 'street': {'id': 910560, 'name': 'On or near Duke Street Lane'}, 'longitude': '-2.985464'}"
liverpool,over 34,White - Any other White background,Female,White,,"{'latitude': '53.399100', 'street': {'id': 910479, 'name': 'On or near Back Falkner Street South'}, 'longitude': '-2.963355'}"
liverpool,18-24,White - English/Welsh/Scottish/Northern Irish/British,Male,White,,"{'latitude': '53.406138', 'street': {'id': 911906, 'name': 'On or near Castle Street'}, 'longitude': '-2.990771'}"
liverpool,18-24,White - English/Welsh/Scottish/Northern Irish/British,Male,White,,"{'latitude': '53.406138', 'street': {'id': 911906, 'name': 'On or near Castle Street'}, 'longitude': '-2.990771'}"
liverpool,18-24,White - English/Welsh/Scottish/Northern Irish/British,,White,,"{'latitude': '53.406138', 'street': {'id': 911906, 'name': 'On or near Castle Street'}, 'longitude': '-2.990771'}"
liverpool,10-17,Other ethnic group - Not stated,Male,White,,"{'latitude': '53.406935', 'street': {'id': 911797, 'name': 'On or near Sweeting Street'}, 'longitude': '-2.990098'}"
liverpool,10-17,Other ethnic group - Not stated,Male,White,,"{'latitude': '53.406935', 'street': {'id': 911797, 'name': 'On or near Sweeting Street'}, 'longitude': '-2.990098'}"
liverpool,18-24,Other ethnic group - Not stated,Female,White,,"{'latitude': '53.406138', 'street': {'id': 911906, 'name': 'On or near Castle Street'}, 'longitude': '-2.990771'}"
liverpool,18-24,Other ethnic group - Not stated,Female,White,,"{'latitude': '53.406138', 'street': {'id': 911906, 'name': 'On or near Castle Street'}, 'longitude': '-2.990771'}"
liverpool,18-24,White - English/Welsh/Scottish/Northern Irish/British,Male,White,,"{'latitude': '53.406138', 'street': {'id': 911906, 'name': 'On or near Castle Street'}, 'longitude': '-2.990771'}"
liverpool,25-34,White - English/Welsh/Scottish/Northern Irish/British,Male,White,,"{'latitude': '53.393409', 'street': {'id': 910515, 'name': 'On or near Fisher Street'}, 'longitude': '-2.980009'}"
liverpool,25-34,Asian/Asian British - Any other Asian background,Male,Asian,,"{'latitude': '53.401872', 'street': {'id': 910564, 'name': 'On or near Canning Place'}, 'longitude': '-2.988220'}"
liverpool,18-24,White - English/Welsh/Scottish/Northern Irish/British,Male,White,,"{'latitude': '53.389799', 'street': {'id': 908662, 'name': 'On or near Laxey Street'}, 'longitude': '-2.971911'}"
liverpool,18-24,White - English/Welsh/Scottish/Northern Irish/British,Male,White,,"{'latitude': '53.402763', 'street': {'id': 910363, 'name': 'On or near Oldham Street'}, 'longitude': '-2.974929'}"
liverpool,over 34,White - English/Welsh/Scottish/Northern Irish/British,Male,White,,"{'latitude': '53.399362', 'street': {'id': 910393, 'name': 'On or near Arch View Crescent'}, 'longitude': '-2.975348'}"
liverpool,10-17,White - English/Welsh/Scottish/Northern Irish/British,Male,White,,"{'latitude': '53.404583', 'street': {'id': 910347, 'name': 'On or near Shopping Area'}, 'longitude': '-2.979950'}"
liverpool,over 34,White - English/Welsh/Scottish/Northern Irish/British,Male,White,,"{'latitude': '53.396527', 'street': {'id': 910480, 'name': 'On or near Back Egerton Street South'}, 'longitude': '-2.966966'}"
liverpool,25-34,White - English/Welsh/Scottish/Northern Irish/British,Male,White,,"{'latitude': '53.396527', 'street': {'id': 910480, 'name': 'On or near Back Egerton Street South'}, 'longitude': '-2.966966'}"
liverpool,18-24,White - English/Welsh/Scottish/Northern Irish/British,Male,White,,"{'latitude': '53.411385', 'street': {'id': 912068, 'name': 'On or near Fontenoy Street'}, 'longitude': '-2.983567'}"
liverpool,over 34,White - English/Welsh/Scottish/Northern Irish/British,Male,White,,"{'latitude': '53.411385', 'street': {'id': 912068, 'name': 'On or near Fontenoy Street'}, 'longitude': '-2.983567'}"
liverpool,25-34,White - English/Welsh/Scottish/Northern Irish/British,Male,White,,"{'latitude': '53.400969', 'street': {'id': 910448, 'name': 'On or near Grove Street'}, 'longitude': '-2.962254'}"
liverpool,over 34,Other ethnic group - Not stated,Male,White,,"{'latitude': '53.402057', 'street': {'id': 910537, 'name': 'On or near Strand Street'}, 'longitude': '-2.989774'}"
liverpool,18-24,White - English/Welsh/Scottish/Northern Irish/British,Male,White,,"{'latitude': '53.401472', 'street': {'id': 910306, 'name': 'On or near York Street'}, 'longitude': '-2.983338'}"
liverpool,18-24,White - English/Welsh/Scottish/Northern Irish/British,Male,White,,"{'latitude': '53.401472', 'street': {'id': 910306, 'name': 'On or near York Street'}, 'longitude': '-2.983338'}"
liverpool,18-24,White - English/Welsh/Scottish/Northern Irish/British,Female,White,,"{'latitude': '53.400732', 'street': {'id': 910320, 'name': 'On or near Lydia Ann Street'}, 'longitude': '-2.981471'}"
liverpool,18-24,Other ethnic group - Not stated,Male,White,,"{'latitude': '53.404563', 'street': {'id': 910334, 'name': 'On or near Brooks Alley'}, 'longitude': '-2.982401'}"
liverpool,25-34,White - English/Welsh/Scottish/Northern Irish/British,Male,White,,"{'latitude': '53.409458', 'street': {'id': 912049, 'name': 'On or near Parking Area'}, 'longitude': '-2.983958'}"
liverpool,25-34,White - English/Welsh/Scottish/Northern Irish/British,Male,White,,"{'latitude': '53.409038', 'street': {'id': 911850, 'name': 'On or near Dale Street (Queensway)'}, 'longitude': '-2.985799'}"
liverpool,18-24,White - English/Welsh/Scottish/Northern Irish/British,Male,White,,"{'latitude': '53.409037', 'street': {'id': 912054, 'name': 'On or near Victoria Street'}, 'longitude': '-2.982670'}"
liverpool,18-24,White - English/Welsh/Scottish/Northern Irish/British,Male,White,,"{'latitude': '53.410687', 'street': {'id': 911880, 'name': 'On or near Further/Higher Educational Building'}, 'longitude': '-2.988635'}"
liverpool,over 34,White - English/Welsh/Scottish/Northern Irish/British,Male,White,,"{'latitude': '53.405648', 'street': {'id': 910569, 'name': 'On or near Shopping Area'}, 'longitude': '-2.987014'}"
liverpool,18-24,White - English/Welsh/Scottish/Northern Irish/British,Male,White,,"{'latitude': '53.410687', 'street': {'id': 911880, 'name': 'On or near Further/Higher Educational Building'}, 'longitude': '-2.988635'}"
liverpool,over 34,Other ethnic group - Not stated,Male,White,,"{'latitude': '53.410914', 'street': {'id': 911978, 'name': 'On or near Finch Place'}, 'longitude': '-2.968557'}"
liverpool,18-24,White - English/Welsh/Scottish/Northern Irish/British,Female,White,,"{'latitude': '53.410047', 'street': {'id': 911834, 'name': 'On or near Hatton Garden'}, 'longitude': '-2.986620'}"
liverpool,18-24,Other ethnic group - Not stated,Female,White,,"{'latitude': '53.410047', 'street': {'id': 911834, 'name': 'On or near Hatton Garden'}, 'longitude': '-2.986620'}"
liverpool,18-24,White - English/Welsh/Scottish/Northern Irish/British,Male,White,,"{'latitude': '53.410047', 'street': {'id': 911834, 'name': 'On or near Hatton Garden'}, 'longitude': '-2.986620'}"
liverpool,25-34,White - English/Welsh/Scottish/Northern Irish/British,Male,White,,"{'latitude': '53.410047', 'street': {'id': 911834, 'name': 'On or near Hatton Garden'}, 'longitude': '-2.986620'}"
liverpool,18-24,White - English/Welsh/Scottish/Northern Irish/British,Female,White,,"{'latitude': '53.410047', 'street': {'id': 911834, 'name': 'On or near Hatton Garden'}, 'longitude': '-2.986620'}"
liverpool,10-17,White - English/Welsh/Scottish/Northern Irish/British,Male,White,,"{'latitude': '53.410047', 'street': {'id': 911834, 'name': 'On or near Hatton Garden'}, 'longitude': '-2.986620'}"
liverpool,25-34,White - English/Welsh/Scottish/Northern Irish/British,Male,White,,"{'latitude': '53.410047', 'street': {'id': 911834, 'name': 'On or near Hatton Garden'}, 'longitude': '-2.986620'}"
liverpool,18-24,Other ethnic group - Not stated,Male,White,,"{'latitude': '53.410047', 'street': {'id': 911834, 'name': 'On or near Hatton Garden'}, 'longitude': '-2.986620'}"
liverpool,18-24,Other ethnic group - Not stated,Male,Black,,"{'latitude': '53.410047', 'street': {'id': 911834, 'name': 'On or near Hatton Garden'}, 'longitude': '-2.986620'}"
liverpool,25-34,White - English/Welsh/Scottish/Northern Irish/British,Male,White,,"{'latitude': '53.410047', 'street': {'id': 911834, 'name': 'On or near Hatton Garden'}, 'longitude': '-2.986620'}"
liverpool,25-34,White - English/Welsh/Scottish/Northern Irish/British,Female,White,,"{'latitude': '53.410047', 'street': {'id': 911834, 'name': 'On or near Hatton Garden'}, 'longitude': '-2.986620'}"
liverpool,25-34,White - English/Welsh/Scottish/Northern Irish/British,Male,White,,"{'latitude': '53.410047', 'street': {'id': 911834, 'name': 'On or near Hatton Garden'}, 'longitude': '-2.986620'}"
liverpool,18-24,White - English/Welsh/Scottish/Northern Irish/British,Male,White,,"{'latitude': '53.410047', 'street': {'id': 911834, 'name': 'On or near Hatton Garden'}, 'longitude': '-2.986620'}"
liverpool,18-24,White - English/Welsh/Scottish/Northern Irish/British,,White,,"{'latitude': '53.410047', 'street': {'id': 911834, 'name': 'On or near Hatton Garden'}, 'longitude': '-2.986620'}"
liverpool,18-24,White - English/Welsh/Scottish/Northern Irish/British,Female,White,,"{'latitude': '53.410047', 'street': {'id': 911834, 'name': 'On or near Hatton Garden'}, 'longitude': '-2.986620'}"
liverpool,25-34,White - English/Welsh/Scottish/Northern Irish/British,Female,White,,"{'latitude': '53.410047', 'street': {'id': 911834, 'name': 'On or near Hatton Garden'}, 'longitude': '-2.986620'}"
liverpool,25-34,White - English/Welsh/Scottish/Northern Irish/British,Male,White,,"{'latitude': '53.410047', 'street': {'id': 911834, 'name': 'On or near Hatton Garden'}, 'longitude': '-2.986620'}"
liverpool,18-24,White - English/Welsh/Scottish/Northern Irish/British,Male,White,,"{'latitude': '53.410047', 'street': {'id': 911834, 'name': 'On or near Hatton Garden'}, 'longitude': '-2.986620'}"
liverpool,18-24,White - English/Welsh/Scottish/Northern Irish/British,Male,White,,"{'latitude': '53.410047', 'street': {'id': 911834, 'name': 'On or near Hatton Garden'}, 'longitude': '-2.986620'}"
liverpool,18-24,White - English/Welsh/Scottish/Northern Irish/British,Male,White,,"{'latitude': '53.410047', 'street': {'id': 911834, 'name': 'On or near Hatton Garden'}, 'longitude': '-2.986620'}"
liverpool,18-24,White - English/Welsh/Scottish/Northern Irish/British,Male,White,,"{'latitude': '53.410047', 'street': {'id': 911834, 'name': 'On or near Hatton Garden'}, 'longitude': '-2.986620'}"
liverpool,,,,,,"{'latitude': '53.387789', 'street': {'id': 908698, 'name': 'On or near Northumberland Grove'}, 'longitude': '-2.979158'}"
liverpool,over 34,Other ethnic group - Not stated,Male,White,,"{'latitude': '53.396337', 'street': {'id': 910425, 'name': 'On or near Parliament Place'}, 'longitude': '-2.970376'}"
liverpool,18-24,Other ethnic group - Any other ethnic group,Male,Other,,"{'latitude': '53.396337', 'street': {'id': 910425, 'name': 'On or near Parliament Place'}, 'longitude': '-2.970376'}"
liverpool,over 34,White - English/Welsh/Scottish/Northern Irish/British,Male,White,,"{'latitude': '53.409038', 'street': {'id': 911850, 'name': 'On or near Dale Street (Queensway)'}, 'longitude': '-2.985799'}"
liverpool,over 34,Other ethnic group - Not stated,Male,Black,,"{'latitude': '53.407829', 'street': {'id': 911849, 'name': 'On or near Davies Street'}, 'longitude': '-2.987381'}"
liverpool,over 34,Other ethnic group - Not stated,Male,Other,Controlled drugs,"{'latitude': '53.404400', 'street': {'id': 1487834, 'name': 'Liverpool Central (Station)'}, 'longitude': '-2.979630'}"
liverpool,18-24,Other ethnic group - Not stated,Male,White,Controlled drugs,"{'latitude': '53.407900', 'street': {'id': 1487832, 'name': 'Liverpool Lime Street (Station)'}, 'longitude': '-2.977600'}"
liverpool,18-24,White - English/Welsh/Scottish/Northern Irish/British,Male,White,Controlled drugs,"{'latitude': '53.407900', 'street': {'id': 1487832, 'name': 'Liverpool Lime Street (Station)'}, 'longitude': '-2.977600'}"
liverpool,25-34,White - English/Welsh/Scottish/Northern Irish/British,Male,White,Controlled drugs,"{'latitude': '53.407900', 'street': {'id': 1487832, 'name': 'Liverpool Lime Street (Station)'}, 'longitude': '-2.977600'}"
liverpool,25-34,White - English/Welsh/Scottish/Northern Irish/British,Male,White,Controlled drugs,"{'latitude': '53.407900', 'street': {'id': 1487832, 'name': 'Liverpool Lime Street (Station)'}, 'longitude': '-2.977600'}"
liverpool,over 34,White - English/Welsh/Scottish/Northern Irish/British,Male,White,Anything to threaten or harm anyone,"{'latitude': '53.407900', 'street': {'id': 1487832, 'name': 'Liverpool Lime Street (Station)'}, 'longitude': '-2.977600'}"
liverpool,over 34,White - English/Welsh/Scottish/Northern Irish/British,Male,White,Stolen goods,"{'latitude': '53.407900', 'street': {'id': 1487832, 'name': 'Liverpool Lime Street (Station)'}, 'longitude': '-2.977600'}"
liverpool,25-34,Asian/Asian British - Any other Asian background,Male,Asian,Controlled drugs,"{'latitude': '53.407900', 'street': {'id': 1487832, 'name': 'Liverpool Lime Street (Station)'}, 'longitude': '-2.977600'}"
liverpool,,Other ethnic group - Not stated,Male,Black,Controlled drugs,"{'latitude': '53.407900', 'street': {'id': 1487832, 'name': 'Liverpool Lime Street (Station)'}, 'longitude': '-2.977600'}"
liverpool,,Other ethnic group - Not stated,Male,Black,Controlled drugs,"{'latitude': '53.407900', 'street': {'id': 1487832, 'name': 'Liverpool Lime Street (Station)'}, 'longitude': '-2.977600'}"
liverpool,18-24,White - English/Welsh/Scottish/Northern Irish/British,Male,White,,"{'latitude': '53.404365', 'street': {'id': 910355, 'name': 'On or near Upper Newington'}, 'longitude': '-2.976861'}"
liverpool,18-24,White - English/Welsh/Scottish/Northern Irish/British,Male,White,,"{'latitude': '53.407012', 'street': {'id': 912070, 'name': 'On or near Dawson Street'}, 'longitude': '-2.984037'}"
liverpool,18-24,White - English/Welsh/Scottish/Northern Irish/British,Male,White,,"{'latitude': '53.405648', 'street': {'id': 910569, 'name': 'On or near Shopping Area'}, 'longitude': '-2.987014'}"
liverpool,over 34,White - English/Welsh/Scottish/Northern Irish/British,Male,White,,"{'latitude': '53.407521', 'street': {'id': 912057, 'name': ""On or near St George'S Place""}, 'longitude': '-2.980033'}"
liverpool,18-24,White - English/Welsh/Scottish/Northern Irish/British,Male,White,,"{'latitude': '53.403765', 'street': {'id': 910519, 'name': 'On or near Parking Area'}, 'longitude': '-2.990791'}"
liverpool,25-34,Black/African/Caribbean/Black British - African,Male,Other,,"{'latitude': '53.409809', 'street': {'id': 912037, 'name': 'On or near Commutation Row'}, 'longitude': '-2.978355'}"
liverpool,25-34,Other ethnic group - Not stated,Male,White,,"{'latitude': '53.404218', 'street': {'id': 910567, 'name': 'On or near Bus/Coach Station'}, 'longitude': '-2.987117'}"
liverpool,10-17,White - English/Welsh/Scottish/Northern Irish/British,Male,White,,"{'latitude': '53.389799', 'street': {'id': 908662, 'name': 'On or near Laxey Street'}, 'longitude': '-2.971911'}"
liverpool,over 34,White - English/Welsh/Scottish/Northern Irish/British,Male,White,,"{'latitude': '53.405982', 'street': {'id': 912079, 'name': 'On or near Back Lime Street'}, 'longitude': '-2.979260'}"
liverpool,18-24,Other ethnic group - Not stated,Male,White,,"{'latitude': '53.405982', 'street': {'id': 912079, 'name': 'On or near Back Lime Street'}, 'longitude': '-2.979260'}"
liverpool,18-24,White - English/Welsh/Scottish/Northern Irish/British,Male,White,,"{'latitude': '53.407939', 'street': {'id': 912044, 'name': 'On or near Shopping Area'}, 'longitude': '-2.977364'}"
liverpool,10-17,White - English/Welsh/Scottish/Northern Irish/British,Male,White,,"{'latitude': '53.405982', 'street': {'id': 912079, 'name': 'On or near Back Lime Street'}, 'longitude': '-2.979260'}"
liverpool,25-34,White - Any other White background,Male,White,,"{'latitude': '53.406417', 'street': {'id': 911902, 'name': 'On or near Tower Gardens'}, 'longitude': '-2.993997'}"
liverpool,10-17,White - English/Welsh/Scottish/Northern Irish/British,Male,White,,"{'latitude': '53.407939', 'street': {'id': 912044, 'name': 'On or near Shopping Area'}, 'longitude': '-2.977364'}"
liverpool,25-34,White - English/Welsh/Scottish/Northern Irish/British,Male,White,,"{'latitude': '53.400836', 'street': {'id': 910396, 'name': 'On or near Nightclub'}, 'longitude': '-2.976450'}"
liverpool,10-17,White - English/Welsh/Scottish/Northern Irish/British,Male,White,,"{'latitude': '53.405982', 'street': {'id': 912079, 'name': 'On or near Back Lime Street'}, 'longitude': '-2.979260'}"
liverpool,25-34,White - English/Welsh/Scottish/Northern Irish/British,Male,White,,"{'latitude': '53.405982', 'street': {'id': 912079, 'name': 'On or near Back Lime Street'}, 'longitude': '-2.979260'}"
liverpool,over 34,White - English/Welsh/Scottish/Northern Irish/British,Male,White,,"{'latitude': '53.413710', 'street': {'id': 912045, 'name': 'On or near Police Station'}, 'longitude': '-2.978384'}"
liverpool,25-34,White - English/Welsh/Scottish/Northern Irish/British,Male,White,,"{'latitude': '53.411693', 'street': {'id': 911809, 'name': 'On or near Princes Gardens'}, 'longitude': '-2.990870'}"
liverpool,25-34,White - English/Welsh/Scottish/Northern Irish/British,Female,White,,"{'latitude': '53.411693', 'street': {'id': 911809, 'name': 'On or near Princes Gardens'}, 'longitude': '-2.990870'}"
liverpool,over 34,White - English/Welsh/Scottish/Northern Irish/British,Male,White,,"{'latitude': '53.399184', 'street': {'id': 904204, 'name': 'On or near Upper Duke Street'}, 'longitude': '-2.973990'}"
liverpool,18-24,White - English/Welsh/Scottish/Northern Irish/British,Male,White,,"{'latitude': '53.399184', 'street': {'id': 904204, 'name': 'On or near Upper Duke Street'}, 'longitude': '-2.973990'}"
liverpool,10-17,White - English/Welsh/Scottish/Northern Irish/British,Male,White,,"{'latitude': '53.392828', 'street': {'id': 910516, 'name': 'On or near Upper Harrington Street'}, 'longitude': '-2.975259'}"
liverpool,25-34,White - English/Welsh/Scottish/Northern Irish/British,Female,White,,"{'latitude': '53.409919', 'street': {'id': 911963, 'name': 'On or near Ilford Street'}, 'longitude': '-2.971498'}"
liverpool,18-24,White - English/Welsh/Scottish/Northern Irish/British,Male,White,,"{'latitude': '53.389572', 'street': {'id': 908707, 'name': 'On or near Upper Mann Street'}, 'longitude': '-2.976613'}"
liverpool,over 34,White - Irish,Male,White,,"{'latitude': '53.408976', 'street': {'id': 912042, 'name': 'On or near Back Bridport Street'}, 'longitude': '-2.975899'}"
liverpool,25-34,White - English/Welsh/Scottish/Northern Irish/British,Male,White,,"{'latitude': '53.409277', 'street': {'id': 912030, 'name': 'On or near Lime Street'}, 'longitude': '-2.978599'}"
liverpool,18-24,White - English/Welsh/Scottish/Northern Irish/British,Male,White,,"{'latitude': '53.409277', 'street': {'id': 912030, 'name': 'On or near Lime Street'}, 'longitude': '-2.978599'}"
liverpool,over 34,White - English/Welsh/Scottish/Northern Irish/British,Male,White,,"{'latitude': '53.407939', 'street': {'id': 912044, 'name': 'On or near Shopping Area'}, 'longitude': '-2.977364'}"
liverpool,over 34,White - English/Welsh/Scottish/Northern Irish/British,Male,White,,"{'latitude': '53.407939', 'street': {'id': 912044, 'name': 'On or near Shopping Area'}, 'longitude': '-2.977364'}"
liverpool,25-34,White - English/Welsh/Scottish/Northern Irish/British,Male,White,,"{'latitude': '53.407939', 'street': {'id': 912044, 'name': 'On or near Shopping Area'}, 'longitude': '-2.977364'}"
liverpool,25-34,White - English/Welsh/Scottish/Northern Irish/British,,White,,"{'latitude': '53.407939', 'street': {'id': 912044, 'name': 'On or near Shopping Area'}, 'longitude': '-2.977364'}"
liverpool,over 34,White - English/Welsh/Scottish/Northern Irish/British,Male,White,,"{'latitude': '53.407939', 'street': {'id': 912044, 'name': 'On or near Shopping Area'}, 'longitude': '-2.977364'}"
liverpool,18-24,White - English/Welsh/Scottish/Northern Irish/British,Male,White,,"{'latitude': '53.407939', 'street': {'id': 912044, 'name': 'On or near Shopping Area'}, 'longitude': '-2.977364'}"
liverpool,over 34,White - English/Welsh/Scottish/Northern Irish/British,Male,White,,"{'latitude': '53.407939', 'street': {'id': 912044, 'name': 'On or near Shopping Area'}, 'longitude': '-2.977364'}"
liverpool,25-34,White - English/Welsh/Scottish/Northern Irish/British,Male,White,,"{'latitude': '53.407939', 'street': {'id': 912044, 'name': 'On or near Shopping Area'}, 'longitude': '-2.977364'}"
liverpool,over 34,White - English/Welsh/Scottish/Northern Irish/British,Male,White,,"{'latitude': '53.407939', 'street': {'id': 912044, 'name': 'On or near Shopping Area'}, 'longitude': '-2.977364'}"
liverpool,18-24,White - English/Welsh/Scottish/Northern Irish/British,Male,White,,"{'latitude': '53.407939', 'street': {'id': 912044, 'name': 'On or near Shopping Area'}, 'longitude': '-2.977364'}"
liverpool,over 34,Mixed/Multiple ethnic groups - White and Asian,Male,Black,,"{'latitude': '53.407939', 'street': {'id': 912044, 'name': 'On or near Shopping Area'}, 'longitude': '-2.977364'}"
liverpool,25-34,White - English/Welsh/Scottish/Northern Irish/British,Male,White,,"{'latitude': '53.407939', 'street': {'id': 912044, 'name': 'On or near Shopping Area'}, 'longitude': '-2.977364'}"
liverpool,over 34,White - English/Welsh/Scottish/Northern Irish/British,Male,White,,"{'latitude': '53.407939', 'street': {'id': 912044, 'name': 'On or near Shopping Area'}, 'longitude': '-2.977364'}"
liverpool,10-17,White - English/Welsh/Scottish/Northern Irish/British,Male,White,,"{'latitude': '53.387789', 'street': {'id': 908698, 'name': 'On or near Northumberland Grove'}, 'longitude': '-2.979158'}"
liverpool,25-34,White - English/Welsh/Scottish/Northern Irish/British,Male,White,,"{'latitude': '53.404583', 'street': {'id': 910347, 'name': 'On or near Shopping Area'}, 'longitude': '-2.979950'}"
liverpool,25-34,White - English/Welsh/Scottish/Northern Irish/British,Male,White,,"{'latitude': '53.407939', 'street': {'id': 912044, 'name': 'On or near Shopping Area'}, 'longitude': '-2.977364'}"
liverpool,25-34,White - English/Welsh/Scottish/Northern Irish/British,Male,White,,"{'latitude': '53.407939', 'street': {'id': 912044, 'name': 'On or near Shopping Area'}, 'longitude': '-2.977364'}"
liverpool,10-17,White - English/Welsh/Scottish/Northern Irish/British,Male,White,,"{'latitude': '53.407939', 'street': {'id': 912044, 'name': 'On or near Shopping Area'}, 'longitude': '-2.977364'}"
liverpool,18-24,White - Irish,Male,White,,"{'latitude': '53.407939', 'street': {'id': 912044, 'name': 'On or near Shopping Area'}, 'longitude': '-2.977364'}"
liverpool,25-34,White - English/Welsh/Scottish/Northern Irish/British,Male,White,,"{'latitude': '53.407939', 'street': {'id': 912044, 'name': 'On or near Shopping Area'}, 'longitude': '-2.977364'}"
liverpool,10-17,Other ethnic group - Not stated,Male,,,"{'latitude': '53.407939', 'street': {'id': 912044, 'name': 'On or near Shopping Area'}, 'longitude': '-2.977364'}"
liverpool,10-17,White - English/Welsh/Scottish/Northern Irish/British,Male,White,,"{'latitude': '53.405982', 'street': {'id': 912079, 'name': 'On or near Back Lime Street'}, 'longitude': '-2.979260'}"
liverpool,25-34,White - English/Welsh/Scottish/Northern Irish/British,Male,White,,"{'latitude': '53.404583', 'street': {'id': 910347, 'name': 'On or near Shopping Area'}, 'longitude': '-2.979950'}"
liverpool,10-17,White - English/Welsh/Scottish/Northern Irish/British,Male,White,,"{'latitude': '53.407939', 'street': {'id': 912044, 'name': 'On or near Shopping Area'}, 'longitude': '-2.977364'}"
liverpool,18-24,White - English/Welsh/Scottish/Northern Irish/British,Male,White,,"{'latitude': '53.390596', 'street': {'id': 908555, 'name': 'On or near Parking Area'}, 'longitude': '-2.986531'}"
liverpool,18-24,White - English/Welsh/Scottish/Northern Irish/British,Male,White,,"{'latitude': '53.390596', 'street': {'id': 908555, 'name': 'On or near Parking Area'}, 'longitude': '-2.986531'}"
liverpool,18-24,White - English/Welsh/Scottish/Northern Irish/British,Male,White,,"{'latitude': '53.390596', 'street': {'id': 908555, 'name': 'On or near Parking Area'}, 'longitude': '-2.986531'}"
liverpool,18-24,White - English/Welsh/Scottish/Northern Irish/British,Male,White,,"{'latitude': '53.390596', 'street': {'id': 908555, 'name': 'On or near Parking Area'}, 'longitude': '-2.986531'}"
liverpool,25-34,White - English/Welsh/Scottish/Northern Irish/British,Male,White,,"{'latitude': '53.412172', 'street': {'id': 911948, 'name': 'On or near Maritime Place'}, 'longitude': '-2.973008'}"
liverpool,18-24,White - English/Welsh/Scottish/Northern Irish/British,Male,White,,"{'latitude': '53.389580', 'street': {'id': 908666, 'name': 'On or near Erin Close'}, 'longitude': '-2.971215'}"
liverpool,over 34,White - English/Welsh/Scottish/Northern Irish/British,Male,White,,"{'latitude': '53.411064', 'street': {'id': 911945, 'name': 'On or near Moss Street'}, 'longitude': '-2.967793'}"
liverpool,25-34,White - English/Welsh/Scottish/Northern Irish/British,Male,White,,"{'latitude': '53.407939', 'street': {'id': 912044, 'name': 'On or near Shopping Area'}, 'longitude': '-2.977364'}"
liverpool,10-17,White - English/Welsh/Scottish/Northern Irish/British,Male,White,,"{'latitude': '53.410456', 'street': {'id': 911959, 'name': 'On or near Kempston Street'}, 'longitude': '-2.971811'}"
liverpool,18-24,White - English/Welsh/Scottish/Northern Irish/British,Male,White,,"{'latitude': '53.411502', 'street': {'id': 912035, 'name': 'On or near Gerard Street'}, 'longitude': '-2.979116'}"
liverpool,over 34,Other ethnic group - Not stated,Male,Other,,"{'latitude': '53.394620', 'street': {'id': 910486, 'name': 'On or near Alexandra Terrace'}, 'longitude': '-2.964908'}"
liverpool,10-17,White - English/Welsh/Scottish/Northern Irish/British,Male,White,,"{'latitude': '53.401872', 'street': {'id': 910564, 'name': 'On or near Canning Place'},