country,age_range,self_defined_ethnicity,gender,officer_defined_ethnicity,object_of_search,location
london,18-24,Other ethnic group - Not stated,Male,Black,Controlled drugs,"{'latitude': '51.510100', 'street': {'id': 1488492, 'name': 'Piccadilly Circus (Lu Station)'}, 'longitude': '-0.134052'}"
london,25-34,Other ethnic group - Not stated,Male,White,Offensive weapons,"{'latitude': '51.503381', 'street': {'id': 1490381, 'name': 'Waterloo (Lu Station)'}, 'longitude': '-0.112226'}"
london,10-17,White - English/Welsh/Scottish/Northern Irish/British,Male,White,Controlled drugs,"{'latitude': '51.503381', 'street': {'id': 1490381, 'name': 'Waterloo (Lu Station)'}, 'longitude': '-0.112226'}"
london,10-17,White - English/Welsh/Scottish/Northern Irish/British,Male,White,Controlled drugs,"{'latitude': '51.503381', 'street': {'id': 1490381, 'name': 'Waterloo (Lu Station)'}, 'longitude': '-0.112226'}"
london,over 34,Black/African/Caribbean/Black British - African,Male,Black,Stolen goods,"{'latitude': '51.503381', 'street': {'id': 1490381, 'name': 'Waterloo (Lu Station)'}, 'longitude': '-0.112226'}"
london,over 34,White - English/Welsh/Scottish/Northern Irish/British,Male,White,Stolen goods,"{'latitude': '51.503381', 'street': {'id': 1490381, 'name': 'Waterloo (Lu Station)'}, 'longitude': '-0.112226'}"
london,18-24,Mixed/Multiple ethnic groups - White and Black African,Male,Black,Stolen goods,"{'latitude': '51.515685', 'street': {'id': 1489883, 'name': 'Oxford Circus (Lu Station)'}, 'longitude': '-0.141062'}"
london,10-17,Black/African/Caribbean/Black British - Caribbean,Male,Black,Anything to threaten or harm anyone,"{'latitude': '51.506800', 'street': {'id': 1489478, 'name': 'Green Park (Lu Station)'}, 'longitude': '-0.142503'}"
london,,White - Any other White background,Male,White,Stolen goods,"{'latitude': '51.520500', 'street': {'id': 1488694, 'name': 'Goodge Street (Lu Station)'}, 'longitude': '-0.134680'}"
london,over 34,White - English/Welsh/Scottish/Northern Irish/British,Male,White,Controlled drugs,"{'latitude': '51.503381', 'street': {'id': 1490381, 'name': 'Waterloo (Lu Station)'}, 'longitude': '-0.112226'}"
london,10-17,Black/African/Caribbean/Black British - Caribbean,Male,Black,Controlled drugs,"{'latitude': '51.503381', 'street': {'id': 1490381, 'name': 'Waterloo (Lu Station)'}, 'longitude': '-0.112226'}"
london,10-17,Mixed/Multiple ethnic groups - Any other Mixed/Multiple ethnic background,Male,Other,Controlled drugs,"{'latitude': '51.503381', 'street': {'id': 1490381, 'name': 'Waterloo (Lu Station)'}, 'longitude': '-0.112226'}"
london,25-34,Other ethnic group - Any other ethnic group,,Other,Controlled drugs,"{'latitude': '51.503381', 'street': {'id': 1490381, 'name': 'Waterloo (Lu Station)'}, 'longitude': '-0.112226'}"
london,18-24,White - English/Welsh/Scottish/Northern Irish/British,Male,White,Article for use in theft,"{'latitude': '51.506800', 'street': {'id': 1489478, 'name': 'Green Park (Lu Station)'}, 'longitude': '-0.142503'}"
london,18-24,Other ethnic group - Not stated,Male,Black,Anything to threaten or harm anyone,"{'latitude': '51.506800', 'street': {'id': 1489478, 'name': 'Green Park (Lu Station)'}, 'longitude': '-0.142503'}"
london,over 34,Other ethnic group - Not stated,Male,White,Anything to threaten or harm anyone,"{'latitude': '51.503350', 'street': {'id': 1490020, 'name': 'Waterloo  (London) (Station)'}, 'longitude': '-0.111911'}"
london,18-24,Black/African/Caribbean/Black British - Caribbean,Male,Black,Controlled drugs,"{'latitude': '51.503381', 'street': {'id': 1490381, 'name': 'Waterloo (Lu Station)'}, 'longitude': '-0.112226'}"
london,10-17,Other ethnic group - Not stated,Female,White,Controlled drugs,"{'latitude': '51.503381', 'street': {'id': 1490381, 'name': 'Waterloo (Lu Station)'}, 'longitude': '-0.112226'}"
london,18-24,Black/African/Caribbean/Black British - African,Male,Black,Controlled drugs,"{'latitude': '51.503381', 'street': {'id': 1490381, 'name': 'Waterloo (Lu Station)'}, 'longitude': '-0.112226'}"
london,10-17,Other ethnic group - Not stated,Female,Black,Controlled drugs,"{'latitude': '51.503381', 'street': {'id': 1490381, 'name': 'Waterloo (Lu Station)'}, 'longitude': '-0.112226'}"
london,over 34,Other ethnic group - Not stated,Male,Black,Offensive weapons,"{'latitude': '51.503381', 'street': {'id': 1490381, 'name': 'Waterloo (Lu Station)'}, 'longitude': '-0.112226'}"
london,18-24,Other ethnic group - Not stated,Male,Black,Stolen goods,"{'latitude': '51.503381', 'street': {'id': 1490381, 'name': 'Waterloo (Lu Station)'}, 'longitude': '-0.112226'}"
london,,Mixed/Multiple ethnic groups - Any other Mixed/Multiple ethnic background,Male,White,Controlled drugs,"{'latitude': '51.501400', 'street': {'id': 1488666, 'name': 'Westminster (Lu Station)'}, 'longitude': '-0.124915'}"
london,18-24,White - English/Welsh/Scottish/Northern Irish/British,Male,White,Stolen goods,"{'latitude': '51.515685', 'street': {'id': 1489883, 'name': 'Oxford Circus (Lu Station)'}, 'longitude': '-0.141062'}"
london,18-24,White - Irish,Male,White,Article for use in theft,"{'latitude': '51.515685', 'street': {'id': 1489883, 'name': 'Oxford Circus (Lu Station)'}, 'longitude': '-0.141062'}"
london,25-34,White - English/Welsh/Scottish/Northern Irish/British,Male,White,Controlled drugs,"{'latitude': '51.520500', 'street': {'id': 1488694, 'name': 'Goodge Street (Lu Station)'}, 'longitude': '-0.134680'}"
london,18-24,Black/African/Caribbean/Black British - African,Male,Black,Controlled drugs,"{'latitude': '51.520500', 'street': {'id': 1488694, 'name': 'Goodge Street (Lu Station)'}, 'longitude': '-0.134680'}"
london,18-24,Black/African/Caribbean/Black British - African,Male,Black,Controlled drugs,"{'latitude': '51.520500', 'street': {'id': 1488694, 'name': 'Goodge Street (Lu Station)'}, 'longitude': '-0.134680'}"
london,,,Male,,Controlled drugs,"{'latitude': '51.512536', 'street': {'id': 956261, 'name': 'On or near Essex Street'}, 'longitude': '-0.112770'}"
london,18-24,Other ethnic group - Not stated,Male,Other,Controlled drugs,"{'latitude': '51.513928', 'street': {'id': 587555, 'name': 'On or near Pleydell Street'}, 'longitude': '-0.108231'}"
london,18-24,Black/African/Caribbean/Black British - Any other Black/African/Caribbean background,Male,Black,Controlled drugs,"{'latitude': '51.512536', 'street': {'id': 956261, 'name': 'On or near Essex Street'}, 'longitude': '-0.112770'}"
london,18-24,Other ethnic group - Not stated,Female,Black,Controlled drugs,"{'latitude': '51.510893', 'street': {'id': 956150, 'name': 'On or near Strand'}, 'longitude': '-0.120231'}"
london,18-24,Other ethnic group - Not stated,Female,Black,Controlled drugs,"{'latitude': '51.510893', 'street': {'id': 956150, 'name': 'On or near Strand'}, 'longitude': '-0.120231'}"
london,25-34,Black/African/Caribbean/Black British - African,Male,Black,Controlled drugs,"{'latitude': '51.511749', 'street': {'id': 587552, 'name': 'On or near Temple Avenue'}, 'longitude': '-0.108018'}"
london,18-24,Other ethnic group - Not stated,Male,Asian,Stolen goods,"{'latitude': '51.507133', 'street': {'id': 956297, 'name': 'On or near Victoria Embankment'}, 'longitude': '-0.121813'}"
london,over 34,Black/African/Caribbean/Black British - Any other Black/African/Caribbean background,Male,Black,Article for use in theft,"{'latitude': '51.510873', 'street': {'id': 587569, 'name': 'On or near Ferry Terminal'}, 'longitude': '-0.105561'}"
london,10-17,Black/African/Caribbean/Black British - Any other Black/African/Caribbean background,Male,Black,Stolen goods,"{'latitude': '51.501207', 'street': {'id': 953429, 'name': 'On or near Great George Street'}, 'longitude': '-0.128569'}"
london,18-24,Other ethnic group - Not stated,Male,Black,Stolen goods,"{'latitude': '51.500844', 'street': {'id': 953528, 'name': 'On or near Westminster Bridge Road'}, 'longitude': '-0.122777'}"
london,25-34,Other ethnic group - Not stated,Male,Asian,Controlled drugs,"{'latitude': '51.507613', 'street': {'id': 956646, 'name': 'On or near Pedestrian Subway'}, 'longitude': '-0.127701'}"
london,18-24,Asian/Asian British - Pakistani,Male,Other,,"{'latitude': '51.516120', 'street': {'id': 956425, 'name': 'On or near Pedestrian Subway'}, 'longitude': '-0.129961'}"
london,10-17,Other ethnic group - Not stated,Male,Black,Stolen goods,"{'latitude': '51.501207', 'street': {'id': 953429, 'name': 'On or near Great George Street'}, 'longitude': '-0.128569'}"
london,25-34,Other ethnic group - Not stated,Male,Black,Controlled drugs,"{'latitude': '51.511985', 'street': {'id': 956432, 'name': 'On or near Shopping Area'}, 'longitude': '-0.131701'}"
london,10-17,Other ethnic group - Not stated,Male,Other,Controlled drugs,"{'latitude': '51.501490', 'street': {'id': 953532, 'name': 'On or near Canon Row'}, 'longitude': '-0.125503'}"
london,,Other ethnic group - Not stated,Male,Other,Controlled drugs,"{'latitude': '51.511985', 'street': {'id': 956432, 'name': 'On or near Shopping Area'}, 'longitude': '-0.131701'}"
london,18-24,White - Any other White background,Male,White,Controlled drugs,"{'latitude': '51.509962', 'street': {'id': 956438, 'name': 'On or near Whitcomb Street'}, 'longitude': '-0.131179'}"
london,over 34,Other ethnic group - Not stated,Male,Other,Controlled drugs,"{'latitude': '51.510835', 'street': {'id': 956562, 'name': 'On or near Nightclub'}, 'longitude': '-0.128996'}"
london,25-34,Asian/Asian British - Any other Asian background,Male,Asian,Fireworks,"{'latitude': '51.516120', 'street': {'id': 956425, 'name': 'On or near Pedestrian Subway'}, 'longitude': '-0.129961'}"
london,,Other ethnic group - Not stated,Male,Black,Stolen goods,"{'latitude': '51.509150', 'street': {'id': 956550, 'name': 'On or near Theatre/Concert Hall'}, 'longitude': '-0.134959'}"
london,25-34,Other ethnic group - Not stated,Male,Other,Stolen goods,"{'latitude': '51.511694', 'street': {'id': 956389, 'name': 'On or near Bloomfield Place'}, 'longitude': '-0.144554'}"
london,25-34,White - Any other White background,Male,White,Offensive weapons,"{'latitude': '51.514347', 'street': {'id': 956356, 'name': 'On or near Argyll Street'}, 'longitude': '-0.140569'}"
london,18-24,White - Any other White background,Male,White,Controlled drugs,"{'latitude': '51.514988', 'street': {'id': 956533, 'name': 'On or near Carlisle Street'}, 'longitude': '-0.133380'}"
london,18-24,White - Any other White background,Male,White,Controlled drugs,"{'latitude': '51.514988', 'street': {'id': 956533, 'name': 'On or near Carlisle Street'}, 'longitude': '-0.133380'}"
london,,Other ethnic group - Not stated,Male,Other,Controlled drugs,"{'latitude': '51.515111', 'street': {'id': 956393, 'name': 'On or near Shopping Area'}, 'longitude': '-0.145107'}"
london,25-34,Asian/Asian British - Any other Asian background,Male,White,Controlled drugs,"{'latitude': '51.515111', 'street': {'id': 956393, 'name': 'On or near Shopping Area'}, 'longitude': '-0.145107'}"
london,10-17,Black/African/Caribbean/Black British - Any other Black/African/Caribbean background,Male,Black,Stolen goods,"{'latitude': '51.501207', 'street': {'id': 953429, 'name': 'On or near Great George Street'}, 'longitude': '-0.128569'}"
london,25-34,White - Any other White background,Male,White,Controlled drugs,"{'latitude': '51.501207', 'street': {'id': 953429, 'name': 'On or near Great George Street'}, 'longitude': '-0.128569'}"
london,18-24,Other ethnic group - Not stated,Male,Asian,Controlled drugs,"{'latitude': '51.501207', 'street': {'id': 953429, 'name': 'On or near Great George Street'}, 'longitude': '-0.128569'}"
london,10-17,Other ethnic group - Not stated,Male,Asian,Controlled drugs,"{'latitude': '51.501207', 'street': {'id': 953429, 'name': 'On or near Great George Street'}, 'longitude': '-0.128569'}"
london,25-34,White - Any other White background,Male,White,Stolen goods,"{'latitude': '51.515441', 'street': {'id': 956165, 'name': 'On or near Parker Mews'}, 'longitude': '-0.122321'}"
london,18-24,Other ethnic group - Not stated,Male,White,Controlled drugs,"{'latitude': '51.501207', 'street': {'id': 953429, 'name': 'On or near Great George Street'}, 'longitude': '-0.128569'}"
london,18-24,White - Any other White background,Male,White,Controlled drugs,"{'latitude': '51.501207', 'street': {'id': 953429, 'name': 'On or near Great George Street'}, 'longitude': '-0.128569'}"
london,10-17,Other ethnic group - Not stated,Male,Black,Stolen goods,"{'latitude': '51.509583', 'street': {'id': 956204, 'name': 'On or near Adam Street'}, 'longitude': '-0.122101'}"
london,18-24,White - Any other White background,Male,White,Stolen goods,"{'latitude': '51.511595', 'street': {'id': 956536, 'name': 'On or near Brewer Street'}, 'longitude': '-0.135464'}"
london,10-17,Mixed/Multiple ethnic groups - White and Black Caribbean,Male,White,Stolen goods,"{'latitude': '51.515111', 'street': {'id': 956393, 'name': 'On or near Shopping Area'}, 'longitude': '-0.145107'}"
london,18-24,Black/African/Caribbean/Black British - Any other Black/African/Caribbean background,Female,Black,Offensive weapons,"{'latitude': '51.514289', 'street': {'id': 956341, 'name': 'On or near Great Marlborough Street'}, 'longitude': '-0.139231'}"
london,10-17,White - English/Welsh/Scottish/Northern Irish/British,Male,White,Offensive weapons,"{'latitude': '51.514289', 'street': {'id': 956341, 'name': 'On or near Great Marlborough Street'}, 'longitude': '-0.139231'}"
london,18-24,Black/African/Caribbean/Black British - Any other Black/African/Caribbean background,Male,Black,Offensive weapons,"{'latitude': '51.514289', 'street': {'id': 956341, 'name': 'On or near Great Marlborough Street'}, 'longitude': '-0.139231'}"
london,10-17,White - English/Welsh/Scottish/Northern Irish/British,Male,White,Offensive weapons,"{'latitude': '51.514289', 'street': {'id': 956341, 'name': 'On or near Great Marlborough Street'}, 'longitude': '-0.139231'}"
london,10-17,Other ethnic group - Not stated,Male,White,Stolen goods,"{'latitude': '51.515111', 'street': {'id': 956393, 'name': 'On or near Shopping Area'}, 'longitude': '-0.145107'}"
london,18-24,White - Any other White background,Male,White,Stolen goods,"{'latitude': '51.505904', 'street': {'id': 956703, 'name': 'On or near Piccadilly'}, 'longitude': '-0.144631'}"
london,10-17,White - Any other White background,Male,White,Stolen goods,"{'latitude': '51.505904', 'street': {'id': 956703, 'name': 'On or near Piccadilly'}, 'longitude': '-0.144631'}"
london,over 34,White - English/Welsh/Scottish/Northern Irish/British,Male,White,Controlled drugs,"{'latitude': '51.495351', 'street': {'id': 953393, 'name': 'On or near Carlisle Place'}, 'longitude': '-0.140896'}"
london,25-34,Other ethnic group - Not stated,Male,Black,Controlled drugs,"{'latitude': '51.498328', 'street': {'id': 953294, 'name': 'On or near Abbey Orchard Street'}, 'longitude': '-0.131338'}"
london,25-34,White - English/Welsh/Scottish/Northern Irish/British,Male,White,Controlled drugs,"{'latitude': '51.498328', 'street': {'id': 953294, 'name': 'On or near Abbey Orchard Street'}, 'longitude': '-0.131338'}"
london,,,,,Controlled drugs,"{'latitude': '51.514988', 'street': {'id': 956533, 'name': 'On or near Carlisle Street'}, 'longitude': '-0.133380'}"
london,25-34,Mixed/Multiple ethnic groups - Any other Mixed/Multiple ethnic background,Male,White,Articles for use in criminal damage,"{'latitude': '51.501207', 'street': {'id': 953429, 'name': 'On or near Great George Street'}, 'longitude': '-0.128569'}"
london,18-24,White - Any other White background,Male,White,Articles for use in criminal damage,"{'latitude': '51.501207', 'street': {'id': 953429, 'name': 'On or near Great George Street'}, 'longitude': '-0.128569'}"
london,over 34,White - English/Welsh/Scottish/Northern Irish/British,Female,White,Controlled drugs,"{'latitude': '51.495351', 'street': {'id': 953393, 'name': 'On or near Carlisle Place'}, 'longitude': '-0.140896'}"
london,25-34,Mixed/Multiple ethnic groups - Any other Mixed/Multiple ethnic background,Male,White,Articles for use in criminal damage,"{'latitude': '51.501207', 'street': {'id': 953429, 'name': 'On or near Great George Street'}, 'longitude': '-0.128569'}"
london,25-34,White - Any other White background,Male,White,Articles for use in criminal damage,"{'latitude': '51.501207', 'street': {'id': 953429, 'name': 'On or near Great George Street'}, 'longitude': '-0.128569'}"
london,,Other ethnic group - Not stated,Male,White,Stolen goods,"{'latitude': '51.500844', 'street': {'id': 953528, 'name': 'On or near Westminster Bridge Road'}, 'longitude': '-0.122777'}"
london,18-24,White - English/Welsh/Scottish/Northern Irish/British,Male,White,Controlled drugs,"{'latitude': '51.507378', 'street': {'id': 956665, 'name': 'On or near Charing Cross'}, 'longitude': '-0.128186'}"
london,25-34,White - Any other White background,Male,White,Offensive weapons,"{'latitude': '51.506818', 'street': {'id': 956679, 'name': 'On or near Piccadilly'}, 'longitude': '-0.142735'}"
london,25-34,White - Any other White background,Male,White,Controlled drugs,"{'latitude': '51.509312', 'street': {'id': 956203, 'name': 'On or near Adelaide Street'}, 'longitude': '-0.125931'}"
london,25-34,White - English/Welsh/Scottish/Northern Irish/British,Male,White,Controlled drugs,"{'latitude': '51.509150', 'street': {'id': 956550, 'name': 'On or near Theatre/Concert Hall'}, 'longitude': '-0.134959'}"
london,,White - Irish,Male,White,Controlled drugs,"{'latitude': '51.517965', 'street': {'id': 956622, 'name': 'On or near Newman Passage'}, 'longitude': '-0.135680'}"
london,25-34,Asian/Asian British - Pakistani,Male,Asian,Controlled drugs,"{'latitude': '51.499482', 'street': {'id': 953269, 'name': 'On or near Petty France'}, 'longitude': '-0.136016'}"
london,25-34,Asian/Asian British - Pakistani,Male,Other,Controlled drugs,"{'latitude': '51.499482', 'street': {'id': 953269, 'name': 'On or near Petty France'}, 'longitude': '-0.136016'}"
london,25-34,White - Any other White background,Male,Asian,Controlled drugs,"{'latitude': '51.499482', 'street': {'id': 953269, 'name': 'On or near Petty France'}, 'longitude': '-0.136016'}"
london,25-34,White - English/Welsh/Scottish/Northern Irish/British,Male,White,Articles for use in criminal damage,"{'latitude': '51.512590', 'street': {'id': 956496, 'name': 'On or near Lexington Street'}, 'longitude': '-0.135856'}"
london,,Other ethnic group - Not stated,Male,Black,Controlled drugs,"{'latitude': '51.497183', 'street': {'id': 953270, 'name': ""On or near Perkin'S Rents""}, 'longitude': '-0.132249'}"
london,25-34,Other ethnic group - Not stated,Male,,Controlled drugs,"{'latitude': '51.497183', 'street': {'id': 953270, 'name': ""On or near Perkin'S Rents""}, 'longitude': '-0.132249'}"
london,,White - English/Welsh/Scottish/Northern Irish/British,Male,White,Evidence of offences under the Act,"{'latitude': '51.507613', 'street': {'id': 956646, 'name': 'On or near Pedestrian Subway'}, 'longitude': '-0.127701'}"
london,18-24,Asian/Asian British - Any other Asian background,Male,Asian,Controlled drugs,"{'latitude': '51.498530', 'street': {'id': 953436, 'name': 'On or near Newnham Terrace'}, 'longitude': '-0.113047'}"
london,over 34,White - Any other White background,Male,White,Controlled drugs,"{'latitude': '51.494518', 'street': {'id': 953407, 'name': 'On or near Rochester Row'}, 'longitude': '-0.136579'}"
london,18-24,Other ethnic group - Any other ethnic group,Male,Other,Controlled drugs,"{'latitude': '51.514499', 'street': {'id': 956320, 'name': 'On or near Princes Street'}, 'longitude': '-0.142797'}"
london,18-24,Black/African/Caribbean/Black British - African,Male,Black,Controlled drugs,"{'latitude': '51.514988', 'street': {'id': 956533, 'name': 'On or near Carlisle Street'}, 'longitude': '-0.133380'}"
london,25-34,Black/African/Caribbean/Black British - Any other Black/African/Caribbean background,Male,Black,Controlled drugs,"{'latitude': '51.502304', 'street': {'id': 953372, 'name': 'On or near Constitution Hill'}, 'longitude': '-0.145007'}"
london,over 34,White - Any other White background,Male,White,Controlled drugs,"{'latitude': '51.503196', 'street': {'id': 953311, 'name': 'On or near Downing Street'}, 'longitude': '-0.127032'}"
london,18-24,Other ethnic group - Not stated,Male,Black,Controlled drugs,"{'latitude': '51.514988', 'street': {'id': 956533, 'name': 'On or near Carlisle Street'}, 'longitude': '-0.133380'}"
london,18-24,White - Any other White background,Male,White,Controlled drugs,"{'latitude': '51.503196', 'street': {'id': 953311, 'name': 'On or near Downing Street'}, 'longitude': '-0.127032'}"
london,18-24,Other ethnic group - Not stated,Male,White,Controlled drugs,"{'latitude': '51.510051', 'street': {'id': 956527, 'name': 'On or near Coventry Street'}, 'longitude': '-0.133971'}"
london,18-24,Other ethnic group - Not stated,Male,White,Controlled drugs,"{'latitude': '51.510051', 'street': {'id': 956527, 'name': 'On or near Coventry Street'}, 'longitude': '-0.133971'}"
london,18-24,Black/African/Caribbean/Black British - Any other Black/African/Caribbean background,Male,Black,Controlled drugs,"{'latitude': '51.503196', 'street': {'id': 953311, 'name': 'On or near Downing Street'}, 'longitude': '-0.127032'}"
london,18-24,Black/African/Caribbean/Black British - African,Female,Black,Controlled drugs,"{'latitude': '51.514988', 'street': {'id': 956533, 'name': 'On or near Carlisle Street'}, 'longitude': '-0.133380'}"
london,,Other ethnic group - Not stated,Male,Black,Controlled drugs,"{'latitude': '51.512330', 'street': {'id': 956574, 'name': 'On or near Nightclub'}, 'longitude': '-0.133633'}"
london,25-34,Asian/Asian British - Any other Asian background,Male,Asian,Controlled drugs,"{'latitude': '51.510437', 'street': {'id': 956159, 'name': 'On or near Savoy Court'}, 'longitude': '-0.120942'}"
london,,Other ethnic group - Not stated,Male,Other,Stolen goods,"{'latitude': '51.515111', 'street': {'id': 956393, 'name': 'On or near Shopping Area'}, 'longitude': '-0.145107'}"
london,,Black/African/Caribbean/Black British - Any other Black/African/Caribbean background,Male,Black,Stolen goods,"{'latitude': '51.508926', 'street': {'id': 956502, 'name': 'On or near Haymarket'}, 'longitude': '-0.132187'}"
london,,Asian/Asian British - Any other Asian background,Male,Other,Stolen goods,"{'latitude': '51.515111', 'street': {'id': 956393, 'name': 'On or near Shopping Area'}, 'longitude': '-0.145107'}"
london,18-24,White - Any other White background,Male,White,Controlled drugs,"{'latitude': '51.510606', 'street': {'id': 956383, 'name': 'On or near Bruton Street'}, 'longitude': '-0.144540'}"
london,25-34,Asian/Asian British - Pakistani,Male,Asian,Controlled drugs,"{'latitude': '51.499482', 'street': {'id': 953269, 'name': 'On or near Petty France'}, 'longitude': '-0.136016'}"
london,25-34,Other ethnic group - Any other ethnic group,Male,Other,Controlled drugs,"{'latitude': '51.514988', 'street': {'id': 956533, 'name': 'On or near Carlisle Street'}, 'longitude': '-0.133380'}"
london,18-24,Asian/Asian British - Indian,Female,White,Controlled drugs,"{'latitude': '51.510006', 'street': {'id': 956472, 'name': 'On or near Piccadilly Circus'}, 'longitude': '-0.135054'}"
london,10-17,Other ethnic group - Not stated,Other,,Controlled drugs,"{'latitude': '51.506818', 'street': {'id': 956679, 'name': 'On or near Piccadilly'}, 'longitude': '-0.142735'}"
london,25-34,White - Any other White background,Male,White,Stolen goods,"{'latitude': '51.515915', 'street': {'id': 956514, 'name': 'On or near Falconberg Mews'}, 'longitude': '-0.131209'}"
london,over 34,Other ethnic group - Any other ethnic group,Male,,Controlled drugs,"{'latitude': '51.509991', 'street': {'id': 956192, 'name': 'On or near Chandos Place'}, 'longitude': '-0.125096'}"
london,18-24,White - English/Welsh/Scottish/Northern Irish/British,Male,White,Controlled drugs,"{'latitude': '51.516769', 'street': {'id': 956610, 'name': 'On or near Tottenham Court Road'}, 'longitude': '-0.130583'}"
london,18-24,White - English/Welsh/Scottish/Northern Irish/British,Female,White,Controlled drugs,"{'latitude': '51.515915', 'street': {'id': 956514, 'name': 'On or near Falconberg Mews'}, 'longitude': '-0.131209'}"
london,25-34,White - Any other White background,Male,White,Controlled drugs,"{'latitude': '51.507473', 'street': {'id': 956299, 'name': 'On or near Northumberland Street'}, 'longitude': '-0.125675'}"
london,18-24,Asian/Asian British - Bangladeshi,Male,Asian,Controlled drugs,"{'latitude': '51.507378', 'street': {'id': 956665, 'name': 'On or near Charing Cross'}, 'longitude': '-0.128186'}"
london,,Other ethnic group - Not stated,Male,White,Offensive weapons,"{'latitude': '51.513734', 'street': {'id': 956189, 'name': 'On or near Drury Lane'}, 'longitude': '-0.120158'}"
london,25-34,White - English/Welsh/Scottish/Northern Irish/British,Male,White,Controlled drugs,"{'latitude': '51.496909', 'street': {'id': 953283, 'name': 'On or near Great Peter Street'}, 'longitude': '-0.129739'}"
london,over 34,Other ethnic group - Not stated,Male,Black,Controlled drugs,"{'latitude': '51.497183', 'street': {'id': 953270, 'name': ""On or near Perkin'S Rents""}, 'longitude': '-0.132249'}"
london,25-34,Other ethnic group - Not stated,Male,Asian,Controlled drugs,"{'latitude': '51.507378', 'street': {'id': 956665, 'name': 'On or near Charing Cross'}, 'longitude': '-0.128186'}"
london,18-24,Mixed/Multiple ethnic groups - White and Asian,Male,Other,Controlled drugs,"{'latitude': '51.507378', 'street': {'id': 956665, 'name': 'On or near Charing Cross'}, 'longitude': '-0.128186'}"
london,,White - English/Welsh/Scottish/Northern Irish/British,Male,White,Stolen goods,"{'latitude': '51.507569', 'street': {'id': 956649, 'name': 'On or near Waterloo Place'}, 'longitude': '-0.132833'}"
london,10-17,Mixed/Multiple ethnic groups - White and Black Caribbean,Male,Black,Controlled drugs,"{'latitude': '51.507569', 'street': {'id': 956649, 'name': 'On or near Waterloo Place'}, 'longitude': '-0.132833'}"
london,18-24,Other ethnic group - Not stated,Male,Asian,Controlled drugs,"{'latitude': '51.494853', 'street': {'id': 953415, 'name': 'On or near Horseferry Road'}, 'longitude': '-0.128829'}"
london,25-34,Mixed/Multiple ethnic groups - Any other Mixed/Multiple ethnic background,Male,Other,Offensive weapons,"{'latitude': '51.498328', 'street': {'id': 953294, 'name': 'On or near Abbey Orchard Street'}, 'longitude': '-0.131338'}"
london,25-34,White - Any other White background,Male,White,Controlled drugs,"{'latitude': '51.509962', 'street': {'id': 956438, 'name': 'On or near Whitcomb Street'}, 'longitude': '-0.131179'}"
london,25-34,White - Any other White background,Male,White,Controlled drugs,"{'latitude': '51.511456', 'street': {'id': 956495, 'name': 'On or near Lisle Street'}, 'longitude': '-0.130700'}"
london,10-17,White - English/Welsh/Scottish/Northern Irish/British,Male,White,Controlled drugs,"{'latitude': '51.507569', 'street': {'id': 956649, 'name': 'On or near Waterloo Place'}, 'longitude': '-0.132833'}"
london,18-24,Black/African/Caribbean/Black British - Caribbean,Male,Black,Offensive weapons,"{'latitude': '51.498328', 'street': {'id': 953294, 'name': 'On or near Abbey Orchard Street'}, 'longitude': '-0.131338'}"
london,18-24,Black/African/Caribbean/Black British - Any other Black/African/Caribbean background,Male,Black,Controlled drugs,"{'latitude': '51.507378', 'street': {'id': 956665, 'name': 'On or near Charing Cross'}, 'longitude': '-0.128186'}"
london,25-34,Asian/Asian British - Pakistani,Male,Other,Controlled drugs,"{'latitude': '51.499482', 'street': {'id': 953269, 'name': 'On or near Petty France'}, 'longitude': '-0.136016'}"
london,18-24,White - Any other White background,Male,White,Controlled drugs,"{'latitude': '51.509962', 'street': {'id': 956438, 'name': 'On or near Whitcomb Street'}, 'longitude': '-0.131179'}"
london,25-34,Other ethnic group - Not stated,Male,White,Controlled drugs,"{'latitude': '51.511715', 'street': {'id': 956493, 'name': 'On or near Little Newport Street'}, 'longitude': '-0.128902'}"
london,25-34,Mixed/Multiple ethnic groups - Any other Mixed/Multiple ethnic background,Male,Black,Offensive weapons,"{'latitude': '51.498328', 'street': {'id': 953294, 'name': 'On or near Abbey Orchard Street'}, 'longitude': '-0.131338'}"
london,10-17,White - English/Welsh/Scottish/Northern Irish/British,Male,White,Offensive weapons,"{'latitude': '51.507569', 'street': {'id': 956649, 'name': 'On or near Waterloo Place'}, 'longitude': '-0.132833'}"
london,25-34,Asian/Asian British - Any other Asian background,Male,Other,Controlled drugs,"{'latitude': '51.492970', 'street': {'id': 953399, 'name': 'On or near Vincent Street'}, 'longitude': '-0.131398'}"
london,10-17,Other ethnic group - Not stated,Male,Asian,Stolen goods,"{'latitude': '51.510893', 'street': {'id': 956463, 'name': 'On or near Rupert Street'}, 'longitude': '-0.132639'}"
london,10-17,Other ethnic group - Not stated,Male,Other,Evidence of offences under the Act,"{'latitude': '51.510953', 'street': {'id': 956560, 'name': 'On or near Nightclub'}, 'longitude': '-0.133012'}"
london,25-34,Other ethnic group - Not stated,Male,Other,Controlled drugs,"{'latitude': '51.492970', 'street': {'id': 953399, 'name': 'On or near Vincent Street'}, 'longitude': '-0.131398'}"
london,over 34,Other ethnic group - Any other ethnic group,Male,Other,Stolen goods,"{'latitude': '51.512984', 'street': {'id': 956466, 'name': 'On or near Romilly Street'}, 'longitude': '-0.130680'}"
london,18-24,Other ethnic group - Not stated,Male,Asian,Controlled drugs,"{'latitude': '51.507133', 'street': {'id': 956297, 'name': 'On or near Victoria Embankment'}, 'longitude': '-0.121813'}"
london,10-17,Mixed/Multiple ethnic groups - White and Asian,Male,Asian,Controlled drugs,"{'latitude': '51.514988', 'street': {'id': 956533, 'name': 'On or near Carlisle Street'}, 'longitude': '-0.133380'}"
london,18-24,Black/African/Caribbean/Black British - Any other Black/African/Caribbean background,Male,Black,Controlled drugs,"{'latitude': '51.501207', 'street': {'id': 953429, 'name': 'On or near Great George Street'}, 'longitude': '-0.128569'}"
london,10-17,White - English/Welsh/Scottish/Northern Irish/British,Male,Black,Controlled drugs,"{'latitude': '51.515915', 'street': {'id': 956514, 'name': 'On or near Falconberg Mews'}, 'longitude': '-0.131209'}"
london,10-17,Asian/Asian British - Chinese,Male,Asian,Offensive weapons,"{'latitude': '51.513952', 'street': {'id': 956377, 'name': 'On or near Woodstock Street'}, 'longitude': '-0.146883'}"
london,over 34,Other ethnic group - Not stated,Male,White,Evidence of offences under the Act,"{'latitude': '51.501207', 'street': {'id': 953429, 'name': 'On or near Great George Street'}, 'longitude': '-0.128569'}"
london,10-17,Mixed/Multiple ethnic groups - Any other Mixed/Multiple ethnic background,Male,Black,Controlled drugs,"{'latitude': '51.508945', 'street': {'id': 956162, 'name': 'On or near Robert Street'}, 'longitude': '-0.122660'}"
london,25-34,White - English/Welsh/Scottish/Northern Irish/British,Male,White,Controlled drugs,"{'latitude': '51.514988', 'street': {'id': 956533, 'name': 'On or near Carlisle Street'}, 'longitude': '-0.133380'}"
london,25-34,Black/African/Caribbean/Black British - Any other Black/African/Caribbean background,Male,Black,Controlled drugs,"{'latitude': '51.514746', 'street': {'id': 956489, 'name': 'On or near Manette Street'}, 'longitude': '-0.130637'}"
london,25-34,Other ethnic group - Not stated,Male,White,Offensive weapons,"{'latitude': '51.498782', 'street': {'id': 953337, 'name': 'On or near Wilfred Street'}, 'longitude': '-0.139503'}"
london,25-34,Other ethnic group - Not stated,Male,White,Offensive weapons,"{'latitude': '51.515111', 'street': {'id': 956393, 'name': 'On or near Shopping Area'}, 'longitude': '-0.145107'}"
london,18-24,Other ethnic group - Not stated,Male,White,Evidence of offences under the Act,"{'latitude': '51.514132', 'street': {'id': 956464, 'name': 'On or near Royalty Mews'}, 'longitude': '-0.132723'}"
london,over 34,Black/African/Caribbean/Black British - Any other Black/African/Caribbean background,Male,Black,Controlled drugs,"{'latitude': '51.499400', 'street': {'id': 953260, 'name': 'On or near The Sanctuary'}, 'longitude': '-0.129162'}"
london,25-34,White - Any other White background,Male,White,Controlled drugs,"{'latitude': '51.509150', 'street': {'id': 956550, 'name': 'On or near Theatre/Concert Hall'}, 'longitude': '-0.134959'}"
london,over 34,White - Any other White background,Female,White,Controlled drugs,"{'latitude': '51.496909', 'street': {'id': 953283, 'name': 'On or near Great Peter Street'}, 'longitude': '-0.129739'}"
london,over 34,Black/African/Caribbean/Black British - African,Male,White,Controlled drugs,"{'latitude': '51.496909', 'street': {'id': 953283, 'name': 'On or near Great Peter Street'}, 'longitude': '-0.129739'}"
london,25-34,White - Any other White background,Male,White,Controlled drugs,"{'latitude': '51.503196', 'street': {'id': 953311, 'name': 'On or near Downing Street'}, 'longitude': '-0.127032'}"
london,18-24,White - Any other White background,Male,White,Controlled drugs,"{'latitude': '51.503196', 'street': {'id': 953311, 'name': 'On or near Downing Street'}, 'longitude': '-0.127032'}"
london,25-34,White - Any other White background,Male,White,Stolen goods,"{'latitude': '51.503196', 'street': {'id': 953311, 'name': 'On or near Downing Street'}, 'longitude': '-0.127032'}"
london,18-24,Black/African/Caribbean/Black British - Any other Black/African/Caribbean background,Male,Black,Controlled drugs,"{'latitude': '51.509583', 'street': {'id': 956204, 'name': 'On or near Adam Street'}, 'longitude': '-0.122101'}"
london,25-34,White - Any other White background,Male,White,Controlled drugs,"{'latitude': '51.516120', 'street': {'id': 956425, 'name': 'On or near Pedestrian Subway'}, 'longitude': '-0.129961'}"
london,over 34,White - Any other White background,Male,White,Stolen goods,"{'latitude': '51.512098', 'street': {'id': 956308, 'name': 'On or near Parking Area'}, 'longitude': '-0.139407'}"
london,18-24,White - Any other White background,Female,White,Controlled drugs,"{'latitude': '51.516120', 'street': {'id': 956425, 'name': 'On or near Pedestrian Subway'}, 'longitude': '-0.129961'}"
london,over 34,White - Any other White background,Male,White,Controlled drugs,"{'latitude': '51.494853', 'street': {'id': 953415, 'name': 'On or near Horseferry Road'}, 'longitude': '-0.128829'}"
london,25-34,White - English/Welsh/Scottish/Northern Irish/British,Male,White,Controlled drugs,"{'latitude': '51.511715', 'street': {'id': 956493, 'name': 'On or near Little Newport Street'}, 'longitude': '-0.128902'}"
london,,,,,Controlled drugs,"{'latitude': '51.507473', 'street': {'id': 956299, 'name': 'On or near Northumberland Street'}, 'longitude': '-0.125675'}"
london,25-34,Other ethnic group - Not stated,Male,Asian,Controlled drugs,"{'latitude': '51.507321', 'street': {'id': 956301, 'name': 'On or near Craven Street'}, 'longitude': '-0.124601'}"
london,over 34,White - English/Welsh/Scottish/Northern Irish/British,Male,White,Evidence of offences under the Act,"{'latitude': '51.516120', 'street': {'id': 956425, 'name': 'On or near Pedestrian Subway'}, 'longitude': '-0.129961'}"
london,10-17,Other ethnic group - Not stated,Male,White,Offensive weapons,"{'latitude': '51.513952', 'street': {'id': 956377, 'name': 'On or near Woodstock Street'}, 'longitude': '-0.146883'}"
london,over 34,Black/African/Caribbean/Black British - African,Male,Black,Controlled drugs,"{'latitude': '51.512098', 'street': {'id': 956308, 'name': 'On or near Parking Area'}, 'longitude': '-0.139407'}"
london,over 34,White - English/Welsh/Scottish/Northern Irish/British,Male,White,Controlled drugs,"{'latitude': '51.497928', 'street': {'id': 953295, 'name': 'On or near Conference/Exhibition Centre'}, 'longitude': '-0.129366'}"
london,over 34,Other ethnic group - Not stated,Male,White,Controlled drugs,"{'latitude': '51.497928', 'street': {'id': 953295, 'name': 'On or near Conference/Exhibition Centre'}, 'longitude': '-0.129366'}"
london,over 34,Other ethnic group - Any other ethnic group,Male,White,Controlled drugs,"{'latitude': '51.506712', 'street': {'id': 956659, 'name': ""On or near Craig'S Court""}, 'longitude': '-0.126974'}"
london,,Other ethnic group - Not stated,Male,White,Controlled drugs,"{'latitude': '51.507133', 'street': {'id': 956297, 'name': 'On or near Victoria Embankment'}, 'longitude': '-0.121813'}"
london,25-34,Black/African/Caribbean/Black British - African,Male,Black,Controlled drugs,"{'latitude': '51.516769', 'street': {'id': 956610, 'name': 'On or near Tottenham Court Road'}, 'longitude': '-0.130583'}"
london,25-34,White - Irish,Male,White,Controlled drugs,"{'latitude': '51.507980', 'street': {'id': 956296, 'name': 'On or near Villiers Street'}, 'longitude': '-0.123651'}"
london,25-34,Black/African/Caribbean/Black British - African,Male,Black,Offensive weapons,"{'latitude': '51.516769', 'street': {'id': 956610, 'name': 'On or near Tottenham Court Road'}, 'longitude': '-0.130583'}"
london,10-17,Black/African/Caribbean/Black British - Any other Black/African/Caribbean background,Male,Black,Controlled drugs,"{'latitude': '51.514132', 'street': {'id': 956464, 'name': 'On or near Royalty Mews'}, 'longitude': '-0.132723'}"
london,25-34,White - English/Welsh/Scottish/Northern Irish/British,Female,White,Controlled drugs,"{'latitude': '51.516769', 'street': {'id': 956610, 'name': 'On or near Tottenham Court Road'}, 'longitude': '-0.130583'}"
london,over 34,White - Any other White background,Female,White,Controlled drugs,"{'latitude': '51.516769', 'street': {'id': 956610, 'name': 'On or near Tottenham Court Road'}, 'longitude': '-0.130583'}"
london,over 34,Other ethnic group - Not stated,Male,White,Controlled drugs,"{'latitude': '51.505904', 'street': {'id': 956703, 'name': 'On or near Piccadilly'}, 'longitude': '-0.144631'}"
london,25-34,White - Any other White background,Male,White,Controlled drugs,"{'latitude': '51.516769', 'street': {'id': 956610, 'name': 'On or near Tottenham Court Road'}, 'longitude': '-0.130583'}"
london,over 34,White - English/Welsh/Scottish/Northern Irish/British,Male,White,Controlled drugs,"{'latitude': '51.496304', 'street': {'id': 953281, 'name': 'On or near Greycoat Place'}, 'longitude': '-0.134648'}"
london,18-24,Other ethnic group - Not stated,Male,Other,Stolen goods,"{'latitude': '51.509427', 'street': {'id': 956853, 'name': 'On or near Farm Street'}, 'longitude': '-0.148465'}"
london,over 34,White - English/Welsh/Scottish/Northern Irish/British,Male,White,Controlled drugs,"{'latitude': '51.496304', 'street': {'id': 953281, 'name': 'On or near Greycoat Place'}, 'longitude': '-0.134648'}"
london,over 34,White - English/Welsh/Scottish/Northern Irish/British,Male,White,Controlled drugs,"{'latitude': '51.496304', 'street': {'id': 953281, 'name': 'On or near Greycoat Place'}, 'longitude': '-0.134648'}"
london,25-34,Other ethnic group - Not stated,Male,,Controlled drugs,"{'latitude': '51.497104', 'street': {'id': 953299, 'name': 'On or near Shopping Area'}, 'longitude': '-0.136358'}"
london,25-34,White - Any other White background,Male,White,Controlled drugs,"{'latitude': '51.513833', 'street': {'id': 956442, 'name': 'On or near Wardour Street'}, 'longitude': '-0.134292'}"
london,,,,,Controlled drugs,"{'latitude': '51.497511', 'street': {'id': 953351, 'name': 'On or near Bressenden Place'}, 'longitude': '-0.142191'}"
london,over 34,Black/African/Caribbean/Black British - African,Male,Black,Controlled drugs,"{'latitude': '51.495307', 'street': {'id': 953424, 'name': 'On or near Arneway Street'}, 'longitude': '-0.131908'}"
london,25-34,Black/African/Caribbean/Black British - African,Male,Black,Controlled drugs,"{'latitude': '51.497511', 'street': {'id': 953351, 'name': 'On or near Bressenden Place'}, 'longitude': '-0.142191'}"
london,10-17,Black/African/Caribbean/Black British - Caribbean,Male,Black,Controlled drugs,"{'latitude': '51.514132', 'street': {'id': 956464, 'name': 'On or near Royalty Mews'}, 'longitude': '-0.132723'}"
london,over 34,Asian/Asian British - Pakistani,Male,Asian,Controlled drugs,"{'latitude': '51.513833', 'street': {'id': 956442, 'name': 'On or near Wardour Street'}, 'longitude': '-0.134292'}"
london,over 34,White - Any other White background,Male,White,Stolen goods,"{'latitude': '51.510437', 'street': {'id': 956159, 'name': 'On or near Savoy Court'}, 'longitude': '-0.120942'}"
london,over 34,Black/African/Caribbean/Black British - African,Male,Black,Controlled drugs,"{'latitude': '51.495307', 'street': {'id': 953424, 'name': 'On or near Arneway Street'}, 'longitude': '-0.131908'}"
london,25-34,Black/African/Caribbean/Black British - African,Male,Other,Stolen goods,"{'latitude': '51.511624', 'street': {'id': 956541, 'name': 'On or near Archer Street'}, 'longitude': '-0.133878'}"
london,over 34,Other ethnic group - Any other ethnic group,Male,White,Controlled drugs,"{'latitude': '51.509962', 'street': {'id': 956438, 'name': 'On or near Whitcomb Street'}, 'longitude': '-0.131179'}"
london,,,,,Controlled drugs,"{'latitude': '51.507321', 'street': {'id': 956301, 'name': 'On or near Craven Street'}, 'longitude': '-0.124601'}"
london,18-24,Black/African/Caribbean/Black British - African,Male,Other,Controlled drugs,"{'latitude': '51.511238', 'street': {'id': 956559, 'name': 'On or near Theatre/Concert Hall'}, 'longitude': '-0.133922'}"
london,18-24,White - Any other White background,Male,White,Stolen goods,"{'latitude': '51.498782', 'street': {'id': 953337, 'name': 'On or near Wilfred Street'}, 'longitude': '-0.139503'}"
london,25-34,Other ethnic group - Any other ethnic group,Male,Asian,Controlled drugs,"{'latitude': '51.507613', 'street': {'id': 956646, 'name': 'On or near Pedestrian Subway'}, 'longitude': '-0.127701'}"
london,25-34,Mixed/Multiple ethnic groups - Any other Mixed/Multiple ethnic background,Male,Black,Stolen goods,"{'latitude': '51.507657', 'street': {'id': 956660, 'name': 'On or near Cockspur Street'}, 'longitude': '-0.129890'}"
london,18-24,Mixed/Multiple ethnic groups - Any other Mixed/Multiple ethnic background,Male,Asian,Controlled drugs,"{'latitude': '51.511238', 'street': {'id': 956559, 'name': 'On or near Theatre/Concert Hall'}, 'longitude': '-0.133922'}"
london,10-17,Other ethnic group - Not stated,Male,Other,Evidence of offences under the Act,"{'latitude': '51.513833', 'street': {'id': 956442, 'name': 'On or near Wardour Street'}, 'longitude': '-0.134292'}"
london,over 34,Black/African/Caribbean/Black British - African,Male,Black,Controlled drugs,"{'latitude': '51.496909', 'street': {'id': 953283, 'name': 'On or near Great Peter Street'}, 'longitude': '-0.129739'}"
london,10-17,Other ethnic group - Not stated,Male,White,Stolen goods,"{'latitude': '51.515111', 'street': {'id': 956393, 'name': 'On or near Shopping Area'}, 'longitude': '-0.145107'}"
london,over 34,White - English/Welsh/Scottish/Northern Irish/British,Male,White,Controlled drugs,"{'latitude': '51.515111', 'street': {'id': 956393, 'name': 'On or near Shopping Area'}, 'longitude': '-0.145107'}"
london,18-24,Black/African/Caribbean/Black British - African,Male,Black,Controlled drugs,"{'latitude': '51.513664', 'street': {'id': 956513, 'name': 'On or near Frith Street'}, 'longitude': '-0.131575'}"
london,25-34,Other ethnic group - Not stated,Male,White,Stolen goods,"{'latitude': '51.506585', 'street': {'id': 956675, 'name': ""On or near St James'S Street""}, 'longitude': '-0.139387'}"
london,25-34,Other ethnic group - Not stated,Male,White,Controlled drugs,"{'latitude': '51.507473', 'street': {'id': 956299, 'name': 'On or near Northumberland Street'}, 'longitude': '-0.125675'}"
london,over 34,Other ethnic group - Not stated,Male,Other,Controlled drugs,"{'latitude': '51.507473', 'street': {'id': 956299, 'name': 'On or near Northumberland Street'}, 'longitude': '-0.125675'}"
london,25-34,White - Any other White background,Male,White,Controlled drugs,"{'latitude': '51.507473', 'street': {'id': 956299, 'name': 'On or near Northumberland Street'}, 'longitude': '-0.125675'}"
london,,Other ethnic group - Not stated,Male,White,Controlled drugs,"{'latitude': '51.507473', 'street': {'id': 956299, 'name': 'On or near Northumberland Street'}, 'longitude': '-0.125675'}"
london,18-24,White - Any other White background,Male,White,Controlled drugs,"{'latitude': '51.507473', 'street': {'id': 956299, 'name': 'On or near Northumberland Street'}, 'longitude': '-0.125675'}"
london,over 34,White - English/Welsh/Scottish/Northern Irish/British,Male,White,Controlled drugs,"{'latitude': '51.507473', 'street': {'id': 956299, 'name': 'On or near Northumberland Street'}, 'longitude': '-0.125675'}"
london,over 34,Asian/Asian British - Pakistani,,Asian,Controlled drugs,"{'latitude': '51.503196', 'street': {'id': 953311, 'name': 'On or near Downing Street'}, 'longitude': '-0.127032'}"
london,over 34,Asian/Asian British - Bangladeshi,Male,Asian,Controlled drugs,"{'latitude': '51.501490', 'street': {'id': 953532, 'name': 'On or near Canon Row'}, 'longitude': '-0.125503'}"
london,25-34,Other ethnic group - Not stated,Male,White,Controlled drugs,"{'latitude': '51.507473', 'street': {'id': 956299, 'name': 'On or near Northumberland Street'}, 'longitude': '-0.125675'}"
london,over 34,White - English/Welsh/Scottish/Northern Irish/British,Male,White,Controlled drugs,"{'latitude': '51.514988', 'street': {'id': 956533, 'name': 'On or near Carlisle Street'}, 'longitude': '-0.133380'}"
london,over 34,Other ethnic group - Not stated,Male,Black,Controlled drugs,"{'latitude': '51.512330', 'street': {'id': 956574, 'name': 'On or near Nightclub'}, 'longitude': '-0.133633'}"
london,25-34,White - Irish,Male,White,Controlled drugs,"{'latitude': '51.512330', 'street': {'id': 956574, 'name': 'On or near Nightclub'}, 'longitude': '-0.133633'}"
london,10-17,White - English/Welsh/Scottish/Northern Irish/British,Male,White,Controlled drugs,"{'latitude': '51.512897', 'street': {'id': 956866, 'name': 'On or near Brook Street'}, 'longitude': '-0.147258'}"
london,10-17,White - English/Welsh/Scottish/Northern Irish/British,Male,White,Controlled drugs,"{'latitude': '51.512118', 'street': {'id': 956859, 'name': 'On or near Davies Street'}, 'longitude': '-0.148068'}"
london,10-17,Other ethnic group - Not stated,Male,White,Evidence of offences under the Act,"{'latitude': '51.515111', 'street': {'id': 956393, 'name': 'On or near Shopping Area'}, 'longitude': '-0.145107'}"
london,10-17,White - Any other White background,Male,White,Stolen goods,"{'latitude': '51.515111', 'street': {'id': 956393, 'name': 'On or near Shopping Area'}, 'longitude': '-0.145107'}"
london,10-17,Other ethnic group - Any other ethnic group,Male,Other,Stolen goods,"{'latitude': '51.515111', 'street': {'id': 956393, 'name': 'On or near Shopping Area'}, 'longitude': '-0.145107'}"
london,10-17,Other ethnic group - Not stated,Male,Other,Stolen goods,"{'latitude': '51.515111', 'street': {'id': 956393, 'name': 'On or near Shopping Area'}, 'longitude': '-0.145107'}"
london,18-24,Black/African/Caribbean/Black British - Caribbean,Male,Black,Controlled drugs,"{'latitude': '51.510263', 'street': {'id': 956571, 'name': 'On or near Nightclub'}, 'longitude': '-0.129192'}"
london,18-24,White - Any other White background,Male,White,Controlled drugs,"{'latitude': '51.510263', 'street': {'id': 956571, 'name': 'On or near Nightclub'}, 'longitude': '-0.129192'}"
london,18-24,White - English/Welsh/Scottish/Northern Irish/British,Male,White,Controlled drugs,"{'latitude': '51.503196', 'street': {'id': 953311, 'name': 'On or near Downing Street'}, 'longitude': '-0.127032'}"
london,18-24,Other ethnic group - Not stated,Male,White,Controlled drugs,"{'latitude': '51.503196', 'street': {'id': 953311, 'name': 'On or near Downing Street'}, 'longitude': '-0.127032'}"
london,25-34,White - Any other White background,Male,White,Controlled drugs,"{'latitude': '51.497183', 'street': {'id': 953270, 'name': ""On or near Perkin'S Rents""}, 'longitude': '-0.132249'}"
london,,Other ethnic group - Not stated,Male,White,Controlled drugs,"{'latitude': '51.507613', 'street': {'id': 956646, 'name': 'On or near Pedestrian Subway'}, 'longitude': '-0.127701'}"
london,18-24,Mixed/Multiple ethnic groups - Any other Mixed/Multiple ethnic background,Male,Other,Controlled drugs,"{'latitude': '51.507613', 'street': {'id': 956646, 'name': 'On or near Pedestrian Subway'}, 'longitude': '-0.127701'}"
london,25-34,Asian/Asian British - Any other Asian background,Male,Asian,Evidence of offences under the Act,"{'latitude': '51.514303', 'street': {'id': 956538, 'name': 'On or near Berwick Street'}, 'longitude': '-0.135555'}"
london,,Black/African/Caribbean/Black British - Any other Black/African/Caribbean background,Male,Black,Controlled drugs,"{'latitude': '51.504484', 'street': {'id': 953310, 'name': 'On or near Marlborough Road'}, 'longitude': '-0.136763'}"
london,25-34,Black/African/Caribbean/Black British - African,Male,Black,Controlled drugs,"{'latitude': '51.494518', 'street': {'id': 953407, 'name': 'On or near Rochester Row'}, 'longitude': '-0.136579'}"
london,over 34,White - English/Welsh/Scottish/Northern Irish/British,Male,White,Stolen goods,"{'latitude': '51.501207', 'street': {'id': 953429, 'name': 'On or near Great George Street'}, 'longitude': '-0.128569'}"
london,,Other ethnic group - Not stated,Male,Black,Controlled drugs,"{'latitude': '51.513338', 'street': {'id': 956573, 'name': 'On or near Nightclub'}, 'longitude': '-0.133649'}"
london,18-24,Other ethnic group - Not stated,Male,White,,"{'latitude': '51.506712', 'street': {'id': 956659, 'name': ""On or near Craig'S Court""}, 'longitude': '-0.126974'}"
london,25-34,White - Any other White background,Male,White,Controlled drugs,"{'latitude': '51.509583', 'street': {'id': 956204, 'name': 'On or near Adam Street'}, 'longitude': '-0.122101'}"
london,18-24,Asian/Asian British - Any other Asian background,Male,Asian,Controlled drugs,"{'latitude': '51.505763', 'street': {'id': 956948, 'name': 'On or near Nightclub'}, 'longitude': '-0.148786'}"
london,10-17,Asian/Asian British - Any other Asian background,Male,Asian,Stolen goods,"{'latitude': '51.515111', 'street': {'id': 956393, 'name': 'On or near Shopping Area'}, 'longitude': '-0.145107'}"
london,18-24,Asian/Asian British - Any other Asian background,Male,Asian,Controlled drugs,"{'latitude': '51.505763', 'street': {'id': 956948, 'name': 'On or near Nightclub'}, 'longitude': '-0.148786'}"
london,18-24,Asian/Asian British - Pakistani,Male,Other,Controlled drugs,"{'latitude': '51.506211', 'street': {'id': 956937, 'name': 'On or near Market Mews'}, 'longitude': '-0.148667'}"
london,25-34,Black/African/Caribbean/Black British - Any other Black/African/Caribbean background,Male,Black,Controlled drugs,"{'latitude': '51.498734', 'street': {'id': 953301, 'name': 'On or near Police Station'}, 'longitude': '-0.133122'}"
london,18-24,White - English/Welsh/Scottish/Northern Irish/British,Male,White,Controlled drugs,"{'latitude': '51.514289', 'street': {'id': 956341, 'name': 'On or near Great Marlborough Street'}, 'longitude': '-0.139231'}"
london,25-34,White - Any other White background,Male,White,Controlled drugs,"{'latitude': '51.507569', 'street': {'id': 956649, 'name': 'On or near Waterloo Place'}, 'longitude': '-0.132833'}"
london,18-24,Black/African/Caribbean/Black British - African,Male,Black,Controlled drugs,"{'latitude': '51.506712', 'street': {'id': 956659, 'name': ""On or near Craig'S Court""}, 'longitude': '-0.126974'}"
london,18-24,Asian/Asian British - Pakistani,Male,Other,Controlled drugs,"{'latitude': '51.505763', 'street': {'id': 956948, 'name': 'On or near Nightclub'}, 'longitude': '-0.148786'}"
london,25-34,Asian/Asian British - Any other Asian background,Male,Asian,Controlled drugs,"{'latitude': '51.512330', 'street': {'id': 956574, 'name': 'On or near Nightclub'}, 'longitude': '-0.133633'}"
london,10-17,Other ethnic group - Not stated,Male,White,Stolen goods,"{'latitude': '51.515111', 'street': {'id': 956393, 'name': 'On or near Shopping Area'}, 'longitude': '-0.145107'}"
london,,Other ethnic group - Not stated,Male,White,Stolen goods,"{'latitude': '51.515111', 'street': {'id': 956393, 'name': 'On or near Shopping Area'}, 'longitude': '-0.145107'}"
london,10-17,White - English/Welsh/Scottish/Northern Irish/British,Male,White,Stolen goods,"{'latitude': '51.515111', 'street': {'id': 956393, 'name': 'On or near Shopping Area'}, 'longitude': '-0.145107'}"
london,over 34,Other ethnic group - Not stated,Male,White,Controlled drugs,"{'latitude': '51.509035', 'street': {'id': 956177, 'name': 'On or near John Adam Street'}, 'longitude': '-0.123276'}"
london,25-34,White - Any other White background,Male,White,Controlled drugs,"{'latitude': '51.509902', 'street': {'id': 956586, 'name': 'On or near Theatre/Concert Hall'}, 'longitude': '-0.126310'}"
london,25-34,White - Any other White background,Male,White,Controlled drugs,"{'latitude': '51.509902', 'street': {'id': 956586, 'name': 'On or near Theatre/Concert Hall'}, 'longitude': '-0.126310'}"
london,25-34,White - Any other White background,Female,White,Controlled drugs,"{'latitude': '51.509902', 'street': {'id': 956586, 'name': 'On or near Theatre/Concert Hall'}, 'longitude': '-0.126310'}"
london,10-17,Other ethnic group - Not stated,Male,Black,Evidence of offences under the Act,"{'latitude': '51.515111', 'street': {'id': 956393, 'name': 'On or near Shopping Area'}, 'longitude': '-0.145107'}"
london,10-17,Other ethnic group - Not stated,Male,Black,Stolen goods,"{'latitude': '51.516769', 'street': {'id': 956610, 'name': 'On or near Tottenham Court Road'}, 'longitude': '-0.130583'}"
london,25-34,Asian/Asian British - Any other Asian background,Male,Asian,Controlled drugs,"{'latitude': '51.494518', 'street': {'id': 953407, 'name': 'On or near Rochester Row'}, 'longitude': '-0.136579'}"
london,25-34,White - Any other White background,Male,White,Controlled drugs,"{'latitude': '51.507569', 'street': {'id': 956649, 'name': 'On or near Waterloo Place'}, 'longitude': '-0.132833'}"
london,25-34,Other ethnic group - Any other ethnic group,Male,White,Offensive weapons,"{'latitude': '51.509150', 'street': {'id': 956550, 'name': 'On or near Theatre/Concert Hall'}, 'longitude': '-0.134959'}"
london,,Other ethnic group - Not stated,Male,Asian,Controlled drugs,"{'latitude': '51.507133', 'street': {'id': 956297, 'name': 'On or near Victoria Embankment'}, 'longitude': '-0.121813'}"
london,18-24,Other ethnic group - Not stated,Male,White,Controlled drugs,"{'latitude': '51.507133', 'street': {'id': 956297, 'name': 'On or near Victoria Embankment'}, 'longitude': '-0.121813'}"
london,18-24,White - English/Welsh/Scottish/Northern Irish/British,Male,White,Controlled drugs,"{'latitude': '51.514289', 'street': {'id': 956341, 'name': 'On or near Great Marlborough Street'}, 'longitude': '-0.139231'}"
london,18-24,White - English/Welsh/Scottish/Northern Irish/British,Male,White,Controlled drugs,"{'latitude': '51.514289', 'street': {'id': 956341, 'name': 'On or near Great Marlborough Street'}, 'longitude': '-0.139231'}"
london,18-24,White - English/Welsh/Scottish/Northern Irish/British,Male,Black,Controlled drugs,"{'latitude': '51.507613', 'street': {'id': 956646, 'name': 'On or near Pedestrian Subway'}, 'longitude': '-0.127701'}"
london,,,,,Articles for use in criminal damage,"{'latitude': '51.503196', 'street': {'id': 953311, 'name': 'On or near Downing Street'}, 'longitude': '-0.127032'}"
london,18-24,Other ethnic group - Not stated,Male,Other,Controlled drugs,"{'latitude': '51.507133', 'street': {'id': 956297, 'name': 'On or near Victoria Embankment'}, 'longitude': '-0.121813'}"
london,18-24,Black/African/Caribbean/Black British - Any other Black/African/Caribbean background,Male,Other,Controlled drugs,"{'latitude': '51.501992', 'street': {'id': 953531, 'name': 'On or near Derby Gate'}, 'longitude': '-0.125381'}"
london,18-24,White - English/Welsh/Scottish/Northern Irish/British,Male,White,Offensive weapons,"{'latitude': '51.513833', 'street': {'id': 956442, 'name': 'On or near Wardour Street'}, 'longitude': '-0.134292'}"
london,,Other ethnic group - Not stated,Female,White,Controlled drugs,"{'latitude': '51.514205', 'street': {'id': 956468, 'name': 'On or near Richmond Buildings'}, 'longitude': '-0.133340'}"
london,,Other ethnic group - Not stated,Male,White,Controlled drugs,"{'latitude': '51.514205', 'street': {'id': 956468, 'name': 'On or near Richmond Buildings'}, 'longitude': '-0.133340'}"
london,25-34,White - Any other White background,Male,White,Controlled drugs,"{'latitude': '51.509583', 'street': {'id': 956204, 'name': 'On or near Adam Street'}, 'longitude': '-0.122101'}"
london,18-24,Other ethnic group - Not stated,Male,,Stolen goods,"{'latitude': '51.514781', 'street': {'id': 956312, 'name': 'On or near Swallow Place'}, 'longitude': '-0.142411'}"
london,25-34,White - English/Welsh/Scottish/Northern Irish/British,Male,White,Stolen goods,"{'latitude': '51.509396', 'street': {'id': 956187, 'name': 'On or near Durham House Street'}, 'longitude': '-0.123334'}"
london,over 34,White - English/Welsh/Scottish/Northern Irish/British,Male,White,Stolen goods,"{'latitude': '51.498734', 'street': {'id': 953301, 'name': 'On or near Police Station'}, 'longitude': '-0.133122'}"
london,over 34,White - English/Welsh/Scottish/Northern Irish/British,Female,White,Stolen goods,"{'latitude': '51.509396', 'street': {'id': 956187, 'name': 'On or near Durham House Street'}, 'longitude': '-0.123334'}"
london,25-34,White - English/Welsh/Scottish/Northern Irish/British,Male,White,Controlled drugs,"{'latitude': '51.509962', 'street': {'id': 956438, 'name': 'On or near Whitcomb Street'}, 'longitude': '-0.131179'}"
london,over 34,White - English/Welsh/Scottish/Northern Irish/British,Male,White,Articles for use in criminal damage,"{'latitude': '51.503196', 'street': {'id': 953311, 'name': 'On or near Downing Street'}, 'longitude': '-0.127032'}"
london,over 34,White - English/Welsh/Scottish/Northern Irish/British,Male,White,Articles for use in criminal damage,"{'latitude': '51.503196', 'street': {'id': 953311, 'name': 'On or near Downing Street'}, 'longitude': '-0.127032'}"
london,over 34,White - English/Welsh/Scottish/Northern Irish/British,,White,Articles for use in criminal damage,"{'latitude': '51.503196', 'street': {'id': 953311, 'name': 'On or near Downing Street'}, 'longitude': '-0.127032'}"
london,25-34,Other ethnic group - Not stated,Male,White,Stolen goods,"{'latitude': '51.512175', 'street': {'id': 956349, 'name': 'On or near Conduit Street'}, 'longitude': '-0.141998'}"
london,18-24,Other ethnic group - Not stated,Male,White,Stolen goods,"{'latitude': '51.512175', 'street': {'id': 956349, 'name': 'On or near Conduit Street'}, 'longitude': '-0.141998'}"
london,over 34,Other ethnic group - Not stated,Male,Other,Controlled drugs,"{'latitude': '51.513952', 'street': {'id': 956377, 'name': 'On or near Woodstock Street'}, 'longitude': '-0.146883'}"
london,over 34,Other ethnic group - Not stated,Male,Black,Offensive weapons,"{'latitude': '51.506151', 'street': {'id': 956298, 'name': 'On or near Scotland Place'}, 'longitude': '-0.125657'}"
london,over 34,White - English/Welsh/Scottish/Northern Irish/British,Male,White,Stolen goods,"{'latitude': '51.497104', 'street': {'id': 953299, 'name': 'On or near Shopping Area'}, 'longitude': '-0.136358'}"
london,,White - English/Welsh/Scottish/Northern Irish/British,Male,White,Controlled drugs,"{'latitude': '51.496909', 'street': {'id': 953283, 'name': 'On or near Great Peter Street'}, 'longitude': '-0.129739'}"
london,25-34,White - Any other White background,Male,White,Stolen goods,"{'latitude': '51.515111', 'street': {'id': 956393, 'name': 'On or near Shopping Area'}, 'longitude': '-0.145107'}"
london,18-24,White - English/Welsh/Scottish/Northern Irish/British,Male,White,Controlled drugs,"{'latitude': '51.508499', 'street': {'id': 956497, 'name': 'On or near Jermyn Street'}, 'longitude': '-0.136455'}"
london,over 34,Other ethnic group - Not stated,Male,Other,Controlled drugs,"{'latitude': '51.514205', 'street': {'id': 956468, 'name': 'On or near Richmond Buildings'}, 'longitude': '-0.133340'}"
london,,Other ethnic group - Not stated,Male,White,Controlled drugs,"{'latitude': '51.497104', 'street': {'id': 953299, 'name': 'On or near Shopping Area'}, 'longitude': '-0.136358'}"
london,25-34,Black/African/Caribbean/Black British - Any other Black/African/Caribbean background,Male,Black,Controlled drugs,"{'latitude': '51.509583', 'street': {'id': 956204, 'name': 'On or near Adam Street'}, 'longitude': '-0.122101'}"
london,18-24,Other ethnic group - Any other ethnic group,Male,Other,Stolen goods,"{'latitude': '51.514781', 'street': {'id': 956312, 'name': 'On or near Swallow Place'}, 'longitude': '-0.142411'}"
london,,Other ethnic group - Not stated,Female,White,Controlled drugs,"{'latitude': '51.516120', 'street': {'id': 956425, 'name': 'On or near Pedestrian Subway'}, 'longitude': '-0.129961'}"
london,25-34,Asian/Asian British - Pakistani,Male,Other,Controlled drugs,"{'latitude': '51.508499', 'street': {'id': 956497, 'name': 'On or near Jermyn Street'}, 'longitude': '-0.136455'}"
london,25-34,White - English/Welsh/Scottish/Northern Irish/British,Male,White,Controlled drugs,"{'latitude': '51.508499', 'street': {'id': 956497, 'name': 'On or near Jermyn Street'}, 'longitude': '-0.136455'}"
london,over 34,Other ethnic group - Not stated,Male,White,Controlled drugs,"{'latitude': '51.514527', 'street': {'id': 956360, 'name': 'On or near Nightclub'}, 'longitude': '-0.140057'}"
london,,White - English/Welsh/Scottish/Northern Irish/British,Male,White,Controlled drugs,"{'latitude': '51.496247', 'street': {'id': 953341, 'name': 'On or near Thirleby Road'}, 'longitude': '-0.138439'}"
london,18-24,Other ethnic group - Not stated,Male,Black,Controlled drugs,"{'latitude': '51.511128', 'street': {'id': 956580, 'name': 'On or near Nightclub'}, 'longitude': '-0.129834'}"
london,18-24,White - Any other White background,Male,White,Controlled drugs,"{'latitude': '51.512720', 'street': {'id': 956474, 'name': 'On or near Peter Street'}, 'longitude': '-0.134395'}"
london,over 34,Other ethnic group - Not stated,Male,White,Fireworks,"{'latitude': '51.510678', 'street': {'id': 956451, 'name': ""On or near St Martin'S Lane""}, 'longitude': '-0.126999'}"
london,over 34,White - English/Welsh/Scottish/Northern Irish/British,Male,White,Controlled drugs,"{'latitude': '51.495307', 'street': {'id': 953424, 'name': 'On or near Arneway Street'}, 'longitude': '-0.131908'}"
london,18-24,White - English/Welsh/Scottish/Northern Irish/British,Male,White,Controlled drugs,"{'latitude': '51.511128', 'street': {'id': 956580, 'name': 'On or near Nightclub'}, 'longitude': '-0.129834'}"
london,18-24,White - Any other White background,Male,White,Controlled drugs,"{'latitude': '51.512720', 'street': {'id': 956474, 'name': 'On or near Peter Street'}, 'longitude': '-0.134395'}"
london,over 34,Other ethnic group - Not stated,Male,White,,"{'latitude': '51.510678', 'street': {'id': 956451, 'name': ""On or near St Martin'S Lane""}, 'longitude': '-0.126999'}"
london,18-24,Black/African/Caribbean/Black British - African,Male,Black,Controlled drugs,"{'latitude': '51.515111', 'street': {'id': 956393, 'name': 'On or near Shopping Area'}, 'longitude': '-0.145107'}"
london,25-34,White - English/Welsh/Scottish/Northern Irish/British,Male,White,Controlled drugs,"{'latitude': '51.511694', 'street': {'id': 956389, 'name': 'On or near Bloomfield Place'}, 'longitude': '-0.144554'}"
london,over 34,White - English/Welsh/Scottish/Northern Irish/British,Male,White,Controlled drugs,"{'latitude': '51.495307', 'street': {'id': 953424, 'name': 'On or near Arneway Street'}, 'longitude': '-0.131908'}"
london,over 34,White - English/Welsh/Scottish/Northern Irish/British,Male,White,Controlled drugs,"{'latitude': '51.495222', 'street': {'id': 953406, 'name': 'On or near Rochester Street'}, 'longitude': '-0.135038'}"
london,18-24,Asian/Asian British - Indian,Male,Other,Stolen goods,"{'latitude': '51.507657', 'street': {'id': 956660, 'name': 'On or near Cockspur Street'}, 'longitude': '-0.129890'}"
london,over 34,Asian/Asian British - Indian,Female,Asian,Stolen goods,"{'latitude': '51.507657', 'street': {'id': 956660, 'name': 'On or near Cockspur Street'}, 'longitude': '-0.129890'}"
london,over 34,White - Any other White background,Male,White,Controlled drugs,"{'latitude': '51.507657', 'street': {'id': 956660, 'name': 'On or near Cockspur Street'}, 'longitude': '-0.129890'}"
london,over 34,Other ethnic group - Not stated,Male,Asian,Evidence of offences under the Act,"{'latitude': '51.510158', 'street': {'id': 956808, 'name': 'On or near Parking Area'}, 'longitude': '-0.150352'}"
london,25-34,Other ethnic group - Not stated,Male,Asian,Stolen goods,"{'latitude': '51.507657', 'street': {'id': 956660, 'name': 'On or near Cockspur Street'}, 'longitude': '-0.129890'}"
london,25-34,Mixed/Multiple ethnic groups - White and Black Caribbean,Male,Black,Evidence of offences under the Act,"{'latitude': '51.510158', 'street': {'id': 956808, 'name': 'On or near Parking Area'}, 'longitude': '-0.150352'}"
london,over 34,White - English/Welsh/Scottish/Northern Irish/British,Male,White,Controlled drugs,"{'latitude': '51.495302', 'street': {'id': 953386, 'name': 'On or near Morpeth Terrace'}, 'longitude': '-0.140077'}"
london,over 34,Other ethnic group - Not stated,Female,White,Controlled drugs,"{'latitude': '51.517233', 'street': {'id': 956642, 'name': 'On or near Supermarket'}, 'longitude': '-0.131487'}"
london,over 34,White - English/Welsh/Scottish/Northern Irish/British,Female,White,Controlled drugs,"{'latitude': '51.517233', 'street': {'id': 956642, 'name': 'On or near Supermarket'}, 'longitude': '-0.131487'}"
london,25-34,Black/African/Caribbean/Black British - Any other Black/African/Caribbean background,Male,Black,Controlled drugs,"{'latitude': '51.517233', 'street': {'id': 956642, 'name': 'On or near Supermarket'}, 'longitude': '-0.131487'}"
london,18-24,White - English/Welsh/Scottish/Northern Irish/British,Male,Black,Controlled drugs,"{'latitude': '51.512226', 'street': {'id': 956446, 'name': 'On or near Upper James Street'}, 'longitude': '-0.137298'}"
london,18-24,Black/African/Caribbean/Black British - African,Male,Black,Controlled drugs,"{'latitude': '51.511394', 'street': {'id': 956491, 'name': 'On or near Lower James Street'}, 'longitude': '-0.136424'}"
london,18-24,Black/African/Caribbean/Black British - Any other Black/African/Caribbean background,Male,Black,Controlled drugs,"{'latitude': '51.511394', 'street': {'id': 956491, 'name': 'On or near Lower James Street'}, 'longitude': '-0.136424'}"
london,18-24,Black/African/Caribbean/Black British - Any other Black/African/Caribbean background,Male,Black,Controlled drugs,"{'latitude': '51.511394', 'street': {'id': 956491, 'name': 'On or near Lower James Street'}, 'longitude': '-0.136424'}"
london,18-24,Black/African/Caribbean/Black British - African,Male,Other,Evidence of offences under the Act,"{'latitude': '51.511914', 'street': {'id': 956211, 'name': 'On or near Theatre/Concert Hall'}, 'longitude': '-0.119425'}"
london,over 34,White - Irish,Male,White,Controlled drugs,"{'latitude': '51.495222', 'street': {'id': 953406, 'name': 'On or near Rochester Street'}, 'longitude': '-0.135038'}"
london,25-34,Other ethnic group - Not stated,Male,Black,Controlled drugs,"{'latitude': '51.507363', 'street': {'id': 956650, 'name': 'On or near Warwick House Street'}, 'longitude': '-0.130622'}"
london,,Other ethnic group - Not stated,Male,Asian,Controlled drugs,"{'latitude': '51.511221', 'street': {'id': 956528, 'name': 'On or near Charing Cross Road'}, 'longitude': '-0.128375'}"
london,,Other ethnic group - Not stated,Male,,Controlled drugs,"{'latitude': '51.510835', 'street': {'id': 956562, 'name': 'On or near Nightclub'}, 'longitude': '-0.128996'}"
london,18-24,Mixed/Multiple ethnic groups - Any other Mixed/Multiple ethnic background,Male,White,Offensive weapons,"{'latitude': '51.515893', 'street': {'id': 956255, 'name': 'On or near Serle Street'}, 'longitude': '-0.114621'}"
london,over 34,Other ethnic group - Not stated,Male,White,Controlled drugs,"{'latitude': '51.507613', 'street': {'id': 956646, 'name': 'On or near Pedestrian Subway'}, 'longitude': '-0.127701'}"
london,25-34,White - Any other White background,Male,White,Offensive weapons,"{'latitude': '51.513474', 'street': {'id': 956484, 'name': 'On or near Moor Street'}, 'longitude': '-0.129824'}"
london,,Asian/Asian British - Any other Asian background,Male,Black,Controlled drugs,"{'latitude': '51.510835', 'street': {'id': 956562, 'name': 'On or near Nightclub'}, 'longitude': '-0.128996'}"
london,,Other ethnic group - Not stated,Male,White,Articles for use in criminal damage,"{'latitude': '51.508577', 'street': {'id': 956212, 'name': 'On or near Nightclub'}, 'longitude': '-0.124419'}"
london,,Asian/Asian British - Any other Asian background,Male,Asian,Controlled drugs,"{'latitude': '51.511221', 'street': {'id': 956528, 'name': 'On or near Charing Cross Road'}, 'longitude': '-0.128375'}"
london,over 34,Other ethnic group - Not stated,Male,White,Evidence of offences under the Act,"{'latitude': '51.508577', 'street': {'id': 956212, 'name': 'On or near Nightclub'}, 'longitude': '-0.124419'}"
london,over 34,White - English/Welsh/Scottish/Northern Irish/British,Male,White,Stolen goods,"{'latitude': '51.510051', 'street': {'id': 956527, 'name': 'On or near Coventry Street'}, 'longitude': '-0.133971'}"
london,25-34,White - Any other White background,Male,White,Controlled drugs,"{'latitude': '51.507657', 'street': {'id': 956660, 'name': 'On or near Cockspur Street'}, 'longitude': '-0.129890'}"
london,25-34,White - Any other White background,Male,White,Controlled drugs,"{'latitude': '51.507657', 'street': {'id': 956660, 'name': 'On or near Cockspur Street'}, 'longitude': '-0.129890'}"
london,18-24,Other ethnic group - Not stated,Male,White,Controlled drugs,"{'latitude': '51.509583', 'street': {'id': 956204, 'name': 'On or near Adam Street'}, 'longitude': '-0.122101'}"
london,18-24,Other ethnic group - Not stated,Male,Other,Controlled drugs,"{'latitude': '51.507613', 'street': {'id': 956646, 'name': 'On or near Pedestrian Subway'}, 'longitude': '-0.127701'}"
london,25-34,Other ethnic group - Not stated,Male,White,Offensive weapons,"{'latitude': '51.515111', 'street': {'id': 956393, 'name': 'On or near Shopping Area'}, 'longitude': '-0.145107'}"
london,over 34,Other ethnic group - Not stated,Male,White,Controlled drugs,"{'latitude': '51.496909', 'street': {'id': 953283, 'name': 'On or near Great Peter Street'}, 'longitude': '-0.129739'}"
london,over 34,Other ethnic group - Not stated,Male,White,Controlled drugs,"{'latitude': '51.510437', 'street': {'id': 956159, 'name': 'On or near Savoy Court'}, 'longitude': '-0.120942'}"
london,10-17,Other ethnic group - Not stated,Male,Black,Offensive weapons,"{'latitude': '51.507133', 'street': {'id': 956297, 'name': 'On or near Victoria Embankment'}, 'longitude': '-0.121813'}"
london,25-34,Other ethnic group - Not stated,Male,Other,Offensive weapons,"{'latitude': '51.506968', 'street': {'id': 956690, 'name': 'On or near Arlington Street'}, 'longitude': '-0.140841'}"
london,over 34,White - English/Welsh/Scottish/Northern Irish/British,Male,White,Stolen goods,"{'latitude': '51.516769', 'street': {'id': 956610, 'name': 'On or near Tottenham Court Road'}, 'longitude': '-0.130583'}"
london,over 34,Asian/Asian British - Any other Asian background,Male,Asian,Controlled drugs,"{'latitude': '51.517965', 'street': {'id': 956622, 'name': 'On or near Newman Passage'}, 'longitude': '-0.135680'}"
london,over 34,White - English/Welsh/Scottish/Northern Irish/British,Male,White,Stolen goods,"{'latitude': '51.516120', 'street': {'id': 956425, 'name': 'On or near Pedestrian Subway'}, 'longitude': '-0.129961'}"
london,over 34,Asian/Asian British - Any other Asian background,Male,Asian,Controlled drugs,"{'latitude': '51.517965', 'street': {'id': 956622, 'name': 'On or near Newman Passage'}, 'longitude': '-0.135680'}"
london,18-24,Black/African/Caribbean/Black British - Any other Black/African/Caribbean background,Male,Black,Controlled drugs,"{'latitude': '51.517233', 'street': {'id': 956642, 'name': 'On or near Supermarket'}, 'longitude': '-0.131487'}"
london,25-34,Asian/Asian British - Any other Asian background,Male,Asian,Controlled drugs,"{'latitude': '51.514625', 'street': {'id': 956525, 'name': ""On or near D'Arblay Street""}, 'longitude': '-0.136018'}"
london,25-34,White - Any other White background,Male,White,Controlled drugs,"{'latitude': '51.507980', 'street': {'id': 956296, 'name': 'On or near Villiers Street'}, 'longitude': '-0.123651'}"
london,25-34,White - Any other White background,Male,White,Controlled drugs,"{'latitude': '51.507378', 'street': {'id': 956665, 'name': 'On or near Charing Cross'}, 'longitude': '-0.128186'}"
london,over 34,Black/African/Caribbean/Black British - African,Male,Black,Stolen goods,"{'latitude': '51.511624', 'street': {'id': 956541, 'name': 'On or near Archer Street'}, 'longitude': '-0.133878'}"
london,18-24,White - Any other White background,Male,White,Stolen goods,"{'latitude': '51.512659', 'street': {'id': 956333, 'name': 'On or near Maddox Street'}, 'longitude': '-0.143045'}"
london,10-17,Asian/Asian British - Indian,Male,Asian,Controlled drugs,"{'latitude': '51.513101', 'street': {'id': 956201, 'name': 'On or near Aldwych'}, 'longitude': '-0.117719'}"
london,18-24,Other ethnic group - Not stated,Male,Other,Controlled drugs,"{'latitude': '51.514781', 'street': {'id': 956312, 'name': 'On or near Swallow Place'}, 'longitude': '-0.142411'}"
london,25-34,White - Irish,Female,White,Controlled drugs,"{'latitude': '51.507980', 'street': {'id': 956296, 'name': 'On or near Villiers Street'}, 'longitude': '-0.123651'}"
london,25-34,White - Any other White background,Male,White,Controlled drugs,"{'latitude': '51.508577', 'street': {'id': 956212, 'name': 'On or near Nightclub'}, 'longitude': '-0.124419'}"
london,25-34,Black/African/Caribbean/Black British - Caribbean,Male,Black,Controlled drugs,"{'latitude': '51.507378', 'street': {'id': 956665, 'name': 'On or near Charing Cross'}, 'longitude': '-0.128186'}"
london,over 34,White - English/Welsh/Scottish/Northern Irish/British,Male,White,Controlled drugs,"{'latitude': '51.510835', 'street': {'id': 956562, 'name': 'On or near Nightclub'}, 'longitude': '-0.128996'}"
london,18-24,White - Any other White background,Male,White,Controlled drugs,"{'latitude': '51.510437', 'street': {'id': 956159, 'name': 'On or near Savoy Court'}, 'longitude': '-0.120942'}"
london,18-24,Black/African/Caribbean/Black British - Caribbean,Male,White,Controlled drugs,"{'latitude': '51.517533', 'street': {'id': 956621, 'name': 'On or near Newman Street'}, 'longitude': '-0.135640'}"
london,over 34,White - English/Welsh/Scottish/Northern Irish/British,Male,White,Controlled drugs,"{'latitude': '51.507980', 'street': {'id': 956296, 'name': 'On or near Villiers Street'}, 'longitude': '-0.123651'}"
london,over 34,White - English/Welsh/Scottish/Northern Irish/British,Male,White,Controlled drugs,"{'latitude': '51.497104', 'street': {'id': 953299, 'name': 'On or near Shopping Area'}, 'longitude': '-0.136358'}"
london,over 34,Other ethnic group - Not stated,Male,Asian,Offensive weapons,"{'latitude': '51.516769', 'street': {'id': 956610, 'name': 'On or near Tottenham Court Road'}, 'longitude': '-0.130583'}"
london,25-34,Black/African/Caribbean/Black British - Any other Black/African/Caribbean background,Male,Black,Controlled drugs,"{'latitude': '51.516120', 'street': {'id': 956425, 'name': 'On or near Pedestrian Subway'}, 'longitude': '-0.129961'}"
london,,Other ethnic group - Not stated,Male,White,Controlled drugs,"{'latitude': '51.496909', 'street': {'id': 953283, 'name': 'On or near Great Peter Street'}, 'longitude': '-0.129739'}"
london,,White - Any other White background,Male,White,Controlled drugs,"{'latitude': '51.498782', 'street': {'id': 953337, 'name': 'On or near Wilfred Street'}, 'longitude': '-0.139503'}"
london,18-24,White - English/Welsh/Scottish/Northern Irish/British,Male,White,Controlled drugs,"{'latitude': '51.507569', 'street': {'id': 956649, 'name': 'On or near Waterloo Place'}, 'longitude': '-0.132833'}"
london,over 34,Asian/Asian British - Pakistani,Male,Asian,Controlled drugs,"{'latitude': '51.509583', 'street': {'id': 956204, 'name': 'On or near Adam Street'}, 'longitude': '-0.122101'}"
london,,White - English/Welsh/Scottish/Northern Irish/British,Male,White,Controlled drugs,"{'latitude': '51.497899', 'street': {'id': 953265, 'name': 'On or near Spenser Street'}, 'longitude': '-0.136600'}"
london,over 34,White - English/Welsh/Scottish/Northern Irish/British,Male,White,Offensive weapons,"{'latitude': '51.509583', 'street': {'id': 956204, 'name': 'On or near Adam Street'}, 'longitude': '-0.122101'}"
london,over 34,Asian/Asian British - Pakistani,Male,Asian,Stolen goods,"{'latitude': '51.515053', 'street': {'id': 956480, 'name': 'On or near Noel Street'}, 'longitude': '-0.136318'}"
london,25-34,White - Any other White background,Female,White,Controlled drugs,"{'latitude': '51.499056', 'street': {'id': 953350, 'name': 'On or near Buckingham Gate'}, 'longitude': '-0.138094'}"
london,over 34,Other ethnic group - Not stated,Male,Black,Controlled drugs,"{'latitude': '51.510437', 'street': {'id': 956159, 'name': 'On or near Savoy Court'}, 'longitude': '-0.120942'}"
london,over 34,White - Any other White background,Male,White,Controlled drugs,"{'latitude': '51.510437', 'street': {'id': 956159, 'name': 'On or near Savoy Court'}, 'longitude': '-0.120942'}"
london,18-24,White - Any other White background,Male,White,Offensive weapons,"{'latitude': '51.514988', 'street': {'id': 956533, 'name': 'On or near Carlisle Street'}, 'longitude': '-0.133380'}"
london,18-24,Other ethnic group - Any other ethnic group,Female,White,Evidence of offences under the Act,"{'latitude': '51.511456', 'street': {'id': 956495, 'name': 'On or near Lisle Street'}, 'longitude': '-0.130700'}"
london,10-17,White - Any other White background,Female,White,Stolen goods,"{'latitude': '51.511456', 'street': {'id': 956495, 'name': 'On or near Lisle Street'}, 'longitude': '-0.130700'}"
london,over 34,White - English/Welsh/Scottish/Northern Irish/British,Male,White,Controlled drugs,"{'latitude': '51.500969', 'street': {'id': 953533, 'name': 'On or near Bridge Street'}, 'longitude': '-0.124933'}"
london,18-24,Black/African/Caribbean/Black British - Caribbean,Male,Black,Controlled drugs,"{'latitude': '51.510732', 'street': {'id': 956840, 'name': 'On or near Mount Row'}, 'longitude': '-0.148570'}"
london,,White - Any other White background,Female,White,Controlled drugs,"{'latitude': '51.516036', 'street': {'id': 956168, 'name': 'On or near Macklin Street'}, 'longitude': '-0.122412'}"
london,,Other ethnic group - Any other ethnic group,Female,Other,Offensive weapons,"{'latitude': '51.513467', 'street': {'id': 956520, 'name': ""On or near Dufour'S Place""}, 'longitude': '-0.137261'}"
london,25-34,White - Any other White background,Male,White,Stolen goods,"{'latitude': '51.505904', 'street': {'id': 956703, 'name': 'On or near Piccadilly'}, 'longitude': '-0.144631'}"
london,25-34,White - English/Welsh/Scottish/Northern Irish/British,Male,White,Controlled drugs,"{'latitude': '51.497183', 'street': {'id': 953270, 'name': ""On or near Perkin'S Rents""}, 'longitude': '-0.132249'}"
london,18-24,White - English/Welsh/Scottish/Northern Irish/British,Male,White,Controlled drugs,"{'latitude': '51.497104', 'street': {'id': 953299, 'name': 'On or near Shopping Area'}, 'longitude': '-0.136358'}"
london,18-24,White - English/Welsh/Scottish/Northern Irish/British,Male,White,Controlled drugs,"{'latitude': '51.497104', 'street': {'id': 953299, 'name': 'On or near Shopping Area'}, 'longitude': '-0.136358'}"
london,18-24,Other ethnic group - Not stated,Male,White,Stolen goods,"{'latitude': '51.512897', 'street': {'id': 956866, 'name': 'On or near Brook Street'}, 'longitude': '-0.147258'}"
london,18-24,Black/African/Caribbean/Black British - Caribbean,Male,Black,Stolen goods,"{'latitude': '51.506930', 'street': {'id': 956706, 'name': 'On or near Clarges Street'}, 'longitude': '-0.145252'}"
london,18-24,White - English/Welsh/Scottish/Northern Irish/British,Male,White,Controlled drugs,"{'latitude': '51.497104', 'street': {'id': 953299, 'name': 'On or near Shopping Area'}, 'longitude': '-0.136358'}"
london,25-34,White - Any other White background,Male,White,Controlled drugs,"{'latitude': '51.515111', 'street': {'id': 956393, 'name': 'On or near Shopping Area'}, 'longitude': '-0.145107'}"
london,,Mixed/Multiple ethnic groups - Any other Mixed/Multiple ethnic background,Male,Other,Stolen goods,"{'latitude': '51.515111', 'street': {'id': 956393, 'name': 'On or near Shopping Area'}, 'longitude': '-0.145107'}"
london,18-24,Other ethnic group - Not stated,Male,Black,Evidence of offences under the Act,"{'latitude': '51.506695', 'street': {'id': 956942, 'name': 'On or near Curzon Street'}, 'longitude': '-0.148028'}"
london,,,,,Controlled drugs,"{'latitude': '51.516120', 'street': {'id': 956425, 'name': 'On or near Pedestrian Subway'}, 'longitude': '-0.129961'}"
london,18-24,Other ethnic group - Not stated,Male,,Evidence of offences under the Act,"{'latitude': '51.516476', 'street': {'id': 587585, 'name': 'On or near Cursitor Street'}, 'longitude': '-0.111181'}"
london,25-34,White - English/Welsh/Scottish/Northern Irish/British,Male,White,Offensive weapons,"{'latitude': '51.500969', 'street': {'id': 953533, 'name': 'On or near Bridge Street'}, 'longitude': '-0.124933'}"
london,over 34,Other ethnic group - Not stated,Male,Other,Offensive weapons,"{'latitude': '51.515111', 'street': {'id': 956393, 'name': 'On or near Shopping Area'}, 'longitude': '-0.145107'}"
london,over 34,Black/African/Caribbean/Black British - Caribbean,Female,Black,Stolen goods,"{'latitude': '51.515111', 'street': {'id': 956393, 'name': 'On or near Shopping Area'}, 'longitude': '-0.145107'}"
london,over 34,White - Any other White background,Male,,Controlled drugs,"{'latitude': '51.515111', 'street': {'id': 956393, 'name': 'On or near Shopping Area'}, 'longitude': '-0.145107'}"
london,18-24,Black/African/Caribbean/Black British - African,Male,Black,Stolen goods,"{'latitude': '51.503196', 'street': {'id': 953311, 'name': 'On or near Downing Street'}, 'longitude': '-0.127032'}"
london,over 34,White - English/Welsh/Scottish/Northern Irish/British,Male,White,Stolen goods,"{'latitude': '51.506818', 'street': {'id': 956679, 'name': 'On or near Piccadilly'}, 'longitude': '-0.142735'}"
london,25-34,Black/African/Caribbean/Black British - Any other Black/African/Caribbean background,Male,Black,Stolen goods,"{'latitude': '51.507378', 'street': {'id': 956665, 'name': 'On or near Charing Cross'}, 'longitude': '-0.128186'}"
london,over 34,White - Any other White background,Male,White,Controlled drugs,"{'latitude': '51.516120', 'street': {'id': 956425, 'name': 'On or near Pedestrian Subway'}, 'longitude': '-0.129961'}"
london,over 34,White - English/Welsh/Scottish/Northern Irish/British,Male,White,Controlled drugs,"{'latitude': '51.513833', 'street': {'id': 956442, 'name': 'On or near Wardour Street'}, 'longitude': '-0.134292'}"
london,over 34,Mixed/Multiple ethnic groups - Any other Mixed/Multiple ethnic background,Female,Asian,Controlled drugs,"{'latitude': '51.516120', 'street': {'id': 956425, 'name': 'On or near Pedestrian Subway'}, 'longitude': '-0.129961'}"
london,over 34,White - Any other White background,Male,White,Offensive weapons,"{'latitude': '51.496271', 'street': {'id': 953289, 'name': 'On or near Chadwick Street'}, 'longitude': '-0.132618'}"
london,18-24,White - English/Welsh/Scottish/Northern Irish/British,Male,White,Controlled drugs,"{'latitude': '51.507133', 'street': {'id': 956297, 'name': 'On or near Victoria Embankment'}, 'longitude': '-0.121813'}"
london,25-34,Other ethnic group - Not stated,Male,Black,Controlled drugs,"{'latitude': '51.497511', 'street': {'id': 953351, 'name': 'On or near Bressenden Place'}, 'longitude': '-0.142191'}"
london,25-34,Black/African/Caribbean/Black British - African,Male,White,Controlled drugs,"{'latitude': '51.516792', 'street': {'id': 956423, 'name': 'On or near Further/Higher Educational Building'}, 'longitude': '-0.143367'}"
london,18-24,Other ethnic group - Not stated,Male,White,Stolen goods,"{'latitude': '51.510835', 'street': {'id': 956562, 'name': 'On or near Nightclub'}, 'longitude': '-0.128996'}"
london,,Black/African/Caribbean/Black British - Any other Black/African/Caribbean background,Male,Other,Stolen goods,"{'latitude': '51.512494', 'street': {'id': 956329, 'name': 'On or near Mill Street'}, 'longitude': '-0.142259'}"
london,18-24,Black/African/Caribbean/Black British - Any other Black/African/Caribbean background,Female,Black,Stolen goods,"{'latitude': '51.516120', 'street': {'id': 956425, 'name': 'On or near Pedestrian Subway'}, 'longitude': '-0.129961'}"
london,25-34,Other ethnic group - Not stated,Male,White,Stolen goods,"{'latitude': '51.507402', 'street': {'id': 956674, 'name': 'On or near Stratton Street'}, 'longitude': '-0.143792'}"
london,,Mixed/Multiple ethnic groups - White and Black Caribbean,Male,Black,Controlled drugs,"{'latitude': '51.511067', 'street': {'id': 956180, 'name': 'On or near Henrietta Street'}, 'longitude': '-0.123798'}"
london,18-24,Other ethnic group - Not stated,Female,Other,Controlled drugs,"{'latitude': '51.498551', 'street': {'id': 953290, 'name': 'On or near Caxton Street'}, 'longitude': '-0.135161'}"
london,18-24,White - English/Welsh/Scottish/Northern Irish/British,Male,White,Evidence of offences under the Act,"{'latitude': '51.507569', 'street': {'id': 956649, 'name': 'On or near Waterloo Place'}, 'longitude': '-0.132833'}"
london,25-34,White - English/Welsh/Scottish/Northern Irish/British,Male,White,Controlled drugs,"{'latitude': '51.497622', 'street': {'id': 953298, 'name': 'On or near Supermarket'}, 'longitude': '-0.137850'}"
london,over 34,Black/African/Caribbean/Black British - Any other Black/African/Caribbean background,Male,Black,Offensive weapons,"{'latitude': '51.515111', 'street': {'id': 956393, 'name': 'On or near Shopping Area'}, 'longitude': '-0.145107'}"
london,over 34,White - Irish,Male,White,Offensive weapons,"{'latitude': '51.515724', 'street': {'id': 956558, 'name': 'On or near Theatre/Concert Hall'}, 'longitude': '-0.129372'}"
london,18-24,Asian/Asian British - Any other Asian background,Male,Asian,Controlled drugs,"{'latitude': '51.519636', 'street': {'id': 961008, 'name': 'On or near Old North Street'}, 'longitude': '-0.119266'}"
london,over 34,White - Any other White background,Male,White,Controlled drugs,"{'latitude': '51.517744', 'street': {'id': 956618, 'name': 'On or near Rathbone Place'}, 'longitude': '-0.134247'}"
london,10-17,Other ethnic group - Not stated,Male,Black,Controlled drugs,"{'latitude': '51.516769', 'street': {'id': 956610, 'name': 'On or near Tottenham Court Road'}, 'longitude': '-0.130583'}"
london,10-17,Mixed/Multiple ethnic groups - Any other Mixed/Multiple ethnic background,Male,White,Offensive weapons,"{'latitude': '51.519333', 'street': {'id': 960763, 'name': 'On or near Further/Higher Educational Building'}, 'longitude': '-0.128965'}"
london,10-17,Other ethnic group - Any other ethnic group,Male,White,Stolen goods,"{'latitude': '51.519333', 'street': {'id': 960763, 'name': 'On or near Further/Higher Educational Building'}, 'longitude': '-0.128965'}"
london,18-24,White - English/Welsh/Scottish/Northern Irish/British,Male,White,Stolen goods,"{'latitude': '51.518632', 'street': {'id': 961047, 'name': 'On or near Brownlow Street'}, 'longitude': '-0.114954'}"
london,10-17,Other ethnic group - Not stated,Male,White,Stolen goods,"{'latitude': '51.518632', 'street': {'id': 961047, 'name': 'On or near Brownlow Street'}, 'longitude': '-0.114954'}"
london,10-17,White - Any other White background,Male,White,Stolen goods,"{'latitude': '51.519333', 'street': {'id': 960763, 'name': 'On or near Further/Higher Educational Building'}, 'longitude': '-0.128965'}"
london,over 34,Other ethnic group - Not stated,Female,Black,Controlled drugs,"{'latitude': '51.518322', 'street': {'id': 956245, 'name': 'On or near Bury Place'}, 'longitude': '-0.124250'}"
london,25-34,White - Any other White background,Male,White,Controlled drugs,"{'latitude': '51.516769', 'street': {'id': 956610, 'name': 'On or near Tottenham Court Road'}, 'longitude': '-0.130583'}"
london,over 34,White - English/Welsh/Scottish/Northern Irish/British,Male,White,Controlled drugs,"{'latitude': '51.515104', 'street': {'id': 956160, 'name': 'On or near Sardinia Street'}, 'longitude': '-0.118112'}"
london,10-17,White - English/Welsh/Scottish/Northern Irish/British,Male,White,Stolen goods,"{'latitude': '51.520292', 'street': {'id': 960746, 'name': 'On or near Montague Place'}, 'longitude': '-0.128233'}"
london,10-17,Asian/Asian British - Bangladeshi,Male,Asian,Controlled drugs,"{'latitude': '51.518688', 'street': {'id': 961024, 'name': 'On or near Nightclub'}, 'longitude': '-0.121251'}"
london,25-34,Other ethnic group - Not stated,Male,White,Controlled drugs,"{'latitude': '51.517208', 'street': {'id': 956249, 'name': 'On or near Conference/Exhibition Centre'}, 'longitude': '-0.117002'}"
london,over 34,Other ethnic group - Not stated,Male,Black,Stolen goods,"{'latitude': '51.516769', 'street': {'id': 956610, 'name': 'On or near Tottenham Court Road'}, 'longitude': '-0.130583'}"
london,18-24,Mixed/Multiple ethnic groups - Any other Mixed/Multiple ethnic background,Female,Other,Controlled drugs,"{'latitude': '51.517238', 'street': {'id': 956251, 'name': 'On or near Supermarket'}, 'longitude': '-0.120575'}"
london,18-24,White - English/Welsh/Scottish/Northern Irish/British,Male,Asian,Controlled drugs,"{'latitude': '51.517238', 'street': {'id': 956251, 'name': 'On or near Supermarket'}, 'longitude': '-0.120575'}"
london,25-34,White - Any other White background,Male,White,Stolen goods,"{'latitude': '51.517238', 'street': {'id': 956251, 'name': 'On or near Supermarket'}, 'longitude': '-0.120575'}"
london,over 34,White - English/Welsh/Scottish/Northern Irish/British,Male,White,Controlled drugs,"{'latitude': '51.514697', 'street': {'id': 956182, 'name': 'On or near Great Queen Street'}, 'longitude': '-0.121948'}"
london,25-34,Other ethnic group - Not stated,Male,Other,Controlled drugs,"{'latitude': '51.521063', 'street': {'id': 961002, 'name': 'On or near Russell Square'}, 'longitude': '-0.125261'}"
london,over 34,White - English/Welsh/Scottish/Northern Irish/British,Male,White,Controlled drugs,"{'latitude': '51.517519', 'street': {'id': 956632, 'name': 'On or near Coptic Street'}, 'longitude': '-0.126300'}"
london,over 34,Other ethnic group - Not stated,Male,White,Controlled drugs,"{'latitude': '51.515681', 'street': {'id': 956454, 'name': 'On or near St Giles High Street'}, 'longitude': '-0.128884'}"
london,18-24,White - English/Welsh/Scottish/Northern Irish/British,Male,White,Controlled drugs,"{'latitude': '51.516769', 'street': {'id': 956610, 'name': 'On or near Tottenham Court Road'}, 'longitude': '-0.130583'}"
london,over 34,White - English/Welsh/Scottish/Northern Irish/British,Male,White,Evidence of offences under the Act,"{'latitude': '51.497104', 'street': {'id': 953299, 'name': 'On or near Shopping Area'}, 'longitude': '-0.136358'}"
london,18-24,Other ethnic group - Not stated,Male,,Controlled drugs,"{'latitude': '51.501136', 'street': {'id': 953530, 'name': 'On or near Westminster Bridge Road'}, 'longitude': '-0.117391'}"
london,18-24,Mixed/Multiple ethnic groups - Any other Mixed/Multiple ethnic background,Male,Black,Controlled drugs,"{'latitude': '51.501136', 'street': {'id': 953530, 'name': 'On or near Westminster Bridge Road'}, 'longitude': '-0.117391'}"
london,18-24,Other ethnic group - Not stated,Male,White,Controlled drugs,"{'latitude': '51.501136', 'street': {'id': 953530, 'name': 'On or near Westminster Bridge Road'}, 'longitude': '-0.117391'}"
london,over 34,Other ethnic group - Any other ethnic group,Male,White,Controlled drugs,"{'latitude': '51.504764', 'street': {'id': 953460, 'name': 'On or near Pedestrian Subway'}, 'longitude': '-0.113192'}"
london,18-24,Asian/Asian British - Indian,Male,Asian,Controlled drugs,"{'latitude': '51.505458', 'street': {'id': 956276, 'name': 'On or near Waterloo Road'}, 'longitude': '-0.114389'}"
london,18-24,Asian/Asian British - Bangladeshi,Male,Asian,Controlled drugs,"{'latitude': '51.505458', 'street': {'id': 956276, 'name': 'On or near Waterloo Road'}, 'longitude': '-0.114389'}"
london,over 34,White - Any other White background,Male,White,Controlled drugs,"{'latitude': '51.503146', 'street': {'id': 953463, 'name': 'On or near Parking Area'}, 'longitude': '-0.113259'}"
london,10-17,White - Any other White background,Male,White,Controlled drugs,"{'latitude': '51.503146', 'street': {'id': 953463, 'name': 'On or near Parking Area'}, 'longitude': '-0.113259'}"
london,25-34,White - Any other White background,Male,White,Controlled drugs,"{'latitude': '51.501937', 'street': {'id': 953511, 'name': 'On or near Theatre/Concert Hall'}, 'longitude': '-0.109059'}"
london,18-24,White - Any other White background,Male,White,Controlled drugs,"{'latitude': '51.500747', 'street': {'id': 953529, 'name': 'On or near Westminster Bridge Road'}, 'longitude': '-0.118963'}"
london,18-24,Black/African/Caribbean/Black British - Any other Black/African/Caribbean background,Male,Black,Controlled drugs,"{'latitude': '51.508080', 'street': {'id': 956658, 'name': 'On or near Duke Of York Street'}, 'longitude': '-0.136098'}"
london,18-24,White - English/Welsh/Scottish/Northern Irish/British,Male,White,Controlled drugs,"{'latitude': '51.501937', 'street': {'id': 953511, 'name': 'On or near Theatre/Concert Hall'}, 'longitude': '-0.109059'}"
london,18-24,White - English/Welsh/Scottish/Northern Irish/British,Female,White,Stolen goods,"{'latitude': '51.501937', 'street': {'id': 953511, 'name': 'On or near Theatre/Concert Hall'}, 'longitude': '-0.109059'}"
london,18-24,Asian/Asian British - Any other Asian background,Male,Asian,Controlled drugs,"{'latitude': '51.500747', 'street': {'id': 953529, 'name': 'On or near Westminster Bridge Road'}, 'longitude': '-0.118963'}"
london,18-24,Black/African/Caribbean/Black British - African,Male,Black,Controlled drugs,"{'latitude': '51.500747', 'street': {'id': 953529, 'name': 'On or near Westminster Bridge Road'}, 'longitude': '-0.118963'}"
london,18-24,Other ethnic group - Not stated,Male,Other,Controlled drugs,"{'latitude': '51.500747', 'street': {'id': 953529, 'name': 'On or near Westminster Bridge Road'}, 'longitude': '-0.118963'}"
london,25-34,Other ethnic group - Not stated,Male,Asian,Stolen goods,"{'latitude': '51.500844', 'street': {'id': 953528, 'name': 'On or near Westminster Bridge Road'}, 'longitude': '-0.122777'}"
london,18-24,White - Any other White background,Male,White,Stolen goods,"{'latitude': '51.505458', 'street': {'id': 956276, 'name': 'On or near Waterloo Road'}, 'longitude': '-0.114389'}"
london,25-34,White - Any other White background,Male,White,Controlled drugs,"{'latitude': '51.503986', 'street': {'id': 953536, 'name': 'On or near Park/Open Space'}, 'longitude': '-0.118527'}"
london,25-34,White - English/Welsh/Scottish/Northern Irish/British,Male,White,Controlled drugs,"{'latitude': '51.503986', 'street': {'id': 953536, 'name': 'On or near Park/Open Space'}, 'longitude': '-0.118527'}"
london,18-24,Other ethnic group - Not stated,Male,Other,Controlled drugs,"{'latitude': '51.502820', 'street': {'id': 953537, 'name': 'On or near Theme/Adventure Park'}, 'longitude': '-0.119267'}"
london,25-34,White - English/Welsh/Scottish/Northern Irish/British,Male,White,Controlled drugs,"{'latitude': '51.502820', 'street': {'id': 953537, 'name': 'On or near Theme/Adventure Park'}, 'longitude': '-0.119267'}"
london,18-24,Black/African/Caribbean/Black British - Any other Black/African/Caribbean background,Male,Black,Controlled drugs,"{'latitude': '51.494293', 'street': {'id': 953548, 'name': 'On or near Lambeth High Street'}, 'longitude': '-0.119661'}"
london,10-17,Other ethnic group - Not stated,Male,Black,Stolen goods,"{'latitude': '51.500906', 'street': {'id': 953490, 'name': 'On or near Lower Marsh'}, 'longitude': '-0.112631'}"
london,25-34,White - English/Welsh/Scottish/Northern Irish/British,Male,White,Stolen goods,"{'latitude': '51.500769', 'street': {'id': 953527, 'name': 'On or near Pedestrian Subway'}, 'longitude': '-0.119222'}"
london,10-17,Other ethnic group - Not stated,Male,White,Offensive weapons,"{'latitude': '51.500747', 'street': {'id': 953529, 'name': 'On or near Westminster Bridge Road'}, 'longitude': '-0.118963'}"
london,10-17,Other ethnic group - Not stated,Male,Black,Offensive weapons,"{'latitude': '51.502820', 'street': {'id': 953537, 'name': 'On or near Theme/Adventure Park'}, 'longitude': '-0.119267'}"
london,18-24,White - Any other White background,Male,White,Controlled drugs,"{'latitude': '51.500961', 'street': {'id': 953500, 'name': 'On or near Coral Street'}, 'longitude': '-0.109330'}"
london,25-34,White - Any other White background,Male,White,Controlled drugs,"{'latitude': '51.494164', 'street': {'id': 953552, 'name': 'On or near A3036'}, 'longitude': '-0.120603'}"
london,25-34,Other ethnic group - Not stated,Male,White,Evidence of offences under the Act,"{'latitude': '51.500076', 'street': {'id': 953512, 'name': 'On or near Sports/Recreation Area'}, 'longitude': '-0.111902'}"
london,18-24,Black/African/Caribbean/Black British - Caribbean,Male,Black,Stolen goods,"{'latitude': '51.500076', 'street': {'id': 953512, 'name': 'On or near Sports/Recreation Area'}, 'longitude': '-0.111902'}"
london,25-34,White - English/Welsh/Scottish/Northern Irish/British,Male,White,Controlled drugs,"{'latitude': '51.500076', 'street': {'id': 953512, 'name': 'On or near Sports/Recreation Area'}, 'longitude': '-0.111902'}"
london,25-34,Black/African/Caribbean/Black British - Any other Black/African/Caribbean background,Male,Black,Offensive weapons,"{'latitude': '51.503146', 'street': {'id': 953463, 'name': 'On or near Parking Area'}, 'longitude': '-0.113259'}"
london,18-24,Other ethnic group - Not stated,Male,,Stolen goods,"{'latitude': '51.500076', 'street': {'id': 953512, 'name': 'On or near Sports/Recreation Area'}, 'longitude': '-0.111902'}"
london,18-24,White - English/Welsh/Scottish/Northern Irish/British,Male,White,Stolen goods,"{'latitude': '51.502791', 'street': {'id': 953521, 'name': 'On or near Chicheley Street'}, 'longitude': '-0.116905'}"
london,10-17,Black/African/Caribbean/Black British - Any other Black/African/Caribbean background,Male,Black,Stolen goods,"{'latitude': '51.502791', 'street': {'id': 953521, 'name': 'On or near Chicheley Street'}, 'longitude': '-0.116905'}"
london,10-17,Other ethnic group - Not stated,Male,Black,Offensive weapons,"{'latitude': '51.498530', 'street': {'id': 953436, 'name': 'On or near Newnham Terrace'}, 'longitude': '-0.113047'}"
london,25-34,White - English/Welsh/Scottish/Northern Irish/British,Male,,Stolen goods,"{'latitude': '51.494164', 'street': {'id': 953552, 'name': 'On or near A3036'},